id,hospital_name,site_name,lat,lon,street,house_number,postcode,city,address,cntr_id,emergency,cap_beds,cap_prac,cap_rooms,facility_type,public_private,list_specs,tel,email,url,ref_date,pub_date,geo_qual,comments
NO_993562718,"NORDLANDSSYKEHUSET, HABILITERING/REHAB, BODØ",,67.2804411811004,14.4144231888214,,,,,,NO,,,,,,Public,,,,,05/01/2024,22/04/2026,-2,Habilitering
CZ_139900,FAKULTNÍ THOMAYEROVA NEMOCNICE,,50.029776392257,14.45782297514,VÍDEÒSKÁ,800,14000.0,PRAHA 4,,CZ,,,,,FAKULTNÍ NEMOCNICE,,"PORODNICE, LÉÈEBNA PRO DLOUHODOBÌ NEMOCNÉ (LDN), LÉÈEBNA TUBERKUL.A RESPIR.NEMOCÍ (TRN), ZAØÍZENÍ LPS",+420261081111,info@ftn.cz,http://www.ftn.cz,01/09/2023,22/04/2026,,
CZ_139830,FAKULTNÍ NEMOCNICE BULOVKA,,50.115385115825,14.464080139513,BUDÍNOVA,67/2,18000.0,PRAHA 8,,CZ,,,,,FAKULTNÍ NEMOCNICE,,"PORODNICE, SAMOST. ORDINACE VŠEOB. PRAKT. LÉKAØE, SAMOSTATNÁ ODBORNÁ LABORATOØ, ZAØÍZENÍ LPS",+420266081111,info@bulovka.cz,http://www.bulovka.cz,01/09/2023,22/04/2026,,
CZ_94474,"VŠEOBECNÁ FAKULTNÍ NEMOCNICE V PRAZE, NEUROLOGICKÁ KLINIKA",,50.073548224462,14.42425231512,VINIÈNÁ,481/9,12800.0,PRAHA 2,,CZ,,,,,FAKULTNÍ NEMOCNICE,,,+420224961111,vfn@vfn.cz,https://www.vfn.cz/,01/09/2023,22/04/2026,,
CZ_48370,VŠEOBECNÁ FAKULTNÍ NEMOCNICE V PRAZE,,50.073442177455,14.420986623033,U NEMOCNICE,499/2,12800.0,PRAHA 2,,CZ,,,,,FAKULTNÍ NEMOCNICE,,LÉKÁRNA,+420224961111,vfn@vfn.cz,https://www.vfn.cz/,01/09/2023,22/04/2026,,
CZ_41976,FAKULTNÍ NEMOCNICE BRNO,,49.19892555629,16.596913496359,OBILNÍ TRH,526/11,60200.0,BRNO,,CZ,,,,,FAKULTNÍ NEMOCNICE,,PORODNICE,,,http://www.fnbrno.cz,01/09/2023,22/04/2026,,
CZ_41974,FAKULTNÍ NEMOCNICE BRNO,,49.203802170983,16.61798396274,ÈERNOPOLNÍ,212/9,61300.0,BRNO,,CZ,,,,,FAKULTNÍ NEMOCNICE,,"SAMOST. ORDINACE VŠEOB. PRAKT. LÉKAØE, ZAØÍZENÍ LPS",,,http://www.fnbrno.cz,01/09/2023,22/04/2026,,
CZ_41972,FAKULTNÍ NEMOCNICE BRNO,,49.174380769286,16.576574340647,JIHLAVSKÁ,340/20,62500.0,BRNO,,CZ,,,,,FAKULTNÍ NEMOCNICE,,,,,http://www.fnbrno.cz,01/09/2023,22/04/2026,,
CZ_5591,FAKULTNÍ NEMOCNICE OSTRAVA,,49.826802536183,18.161079319586,17. LISTOPADU,1790/5,70800.0,OSTRAVA,,CZ,,,,,FAKULTNÍ NEMOCNICE,,"PORODNICE, SAMOST. ORDINACE VŠEOB. PRAKT. LÉKAØE, SAM.ORD.PRAKT.LÉKAØE PRO DÌTI A DOROST, PØEPRAVA PACIENTÙ NEODKLADNÉ PÉÈE",420597371111.0,fno@fno.cz,https://www.fno.cz/,01/09/2023,22/04/2026,,
CZ_4170,FAKULTNÍ NEMOCNICE PLZEÒ - LOCHOTÍN,,49.762313183597,13.380227787268,ALEJ SVOBODY,923/80,32300.0,PLZEÒ,,CZ,,,,,FAKULTNÍ NEMOCNICE,,"PORODNICE, SAMOST. ORDINACE VŠEOB. PRAKT. LÉKAØE, ZAØÍZENÍ LPS, SAM.ORD.PRAKT.LÉKAØE PRO DÌTI A DOROST",,,https://www.fnplzen.cz/,01/09/2023,22/04/2026,,
CZ_4166,FAKULTNÍ NEMOCNICE PLZEÒ,,49.731772751343,13.375827469753,EDVARDA BENEŠE,1128/13,30100.0,PLZEÒ,,CZ,,,,,FAKULTNÍ NEMOCNICE,,"LÉÈEBNA PRO DLOUHODOBÌ NEMOCNÉ (LDN), SAM.ORD.PRAKT.LÉKAØE PRO DÌTI A DOROST, SAMOST. ORDINACE VŠEOB. PRAKT. LÉKAØE, ZDRAVOTNICKÁ DOPRAVNÍ SLUŽBA",,,https://www.fnplzen.cz/,01/09/2023,22/04/2026,,
CZ_1283,FAKULTNÍ NEMOCNICE HRADEC KRÁLOVÉ,,50.208474765335,15.841264275934,NEZVALOVA,265/15,50003.0,HRADEC KRÁLOVÉ,,CZ,,,,,FAKULTNÍ NEMOCNICE,,,,,http://www.fnhk.cz,01/09/2023,22/04/2026,,
CZ_1282,FAKULTNÍ NEMOCNICE HRADEC KRÁLOVÉ,,50.20040319789,15.826936413381,SOKOLSKÁ,581,50003.0,HRADEC KRÁLOVÉ,,CZ,,,,,FAKULTNÍ NEMOCNICE,,"PORODNICE, SAMOST. ORDINACE VŠEOB. PRAKT. LÉKAØE, ZAØÍZENÍ LPS, HEMODIALYZAÈNÍ STØEDISKO",,,http://www.fnhk.cz,01/09/2023,22/04/2026,,
CZ_1170,FAKULTNÍ NEMOCNICE U SV. ANNY V BRNÌ,,49.225699759147,16.590173977645,BERKOVA,1204/34,61200.0,BRNO,,CZ,,,,,FAKULTNÍ NEMOCNICE,,,420543181111.0,,http://www.fnusa.cz/,01/09/2023,22/04/2026,,
CZ_1167,FAKULTNÍ NEMOCNICE U SV. ANNY V BRNÌ,,49.191327013471,16.598771973442,PEKAØSKÁ,664/53,60200.0,BRNO,,CZ,,,,,FAKULTNÍ NEMOCNICE,,"SAMOST. ORDINACE VŠEOB. PRAKT. LÉKAØE, SAMOSTATNÁ ORDINACE PL - STOMATOLOGA",420543181111.0,,http://www.fnusa.cz/,01/09/2023,22/04/2026,,
CZ_1095,FAKULTNÍ NEMOCNICE OLOMOUC,,49.585952161261,17.239606127356,ZDRAVOTNÍKÙ,248/7,77900.0,OLOMOUC,,CZ,,,,,FAKULTNÍ NEMOCNICE,,"PORODNICE, SAM.ORD.PRAKT.LÉKAØE PRO DÌTI A DOROST, ZAØÍZENÍ LPS, SAMOSTATNÉ ZAØÍZENÍ PSYCHOLOGA",420588441111.0,info@fnol.cz,http://www.fnol.cz,01/09/2023,22/04/2026,,
CZ_283,FAKULTNÍ NEMOCNICE V MOTOLE,,50.072658816802,14.340550391565,V ÚVALU,84/1,15000.0,PRAHA 5,,CZ,,,,,FAKULTNÍ NEMOCNICE,,"PORODNICE, LÉÈEBNA PRO DLOUHODOBÌ NEMOCNÉ (LDN), SAMOST. ORDINACE VŠEOB. PRAKT. LÉKAØE, ZAØÍZENÍ LPS",420224431111.0,reditelstvi@fnmotol.cz,http://www.fnmotol.cz,01/09/2023,22/04/2026,,
CZ_267,FAKULTNÍ NEMOCNICE KRÁLOVSKÉ VINOHRADY,,50.075717870637,14.475425133187,ŠROBÁROVA,1150/50,10000.0,PRAHA 10,,CZ,,,,,FAKULTNÍ NEMOCNICE,,"PORODNICE, LÉÈEBNA PRO DLOUHODOBÌ NEMOCNÉ (LDN), SAMOST. ORDINACE VŠEOB. PRAKT. LÉKAØE, ZAØÍZENÍ LPS",420267162200.0,fnkvred@fnkv.cz,https://fnkv.cz,01/09/2023,22/04/2026,,
CZ_242,"VŠEOBECNÁ FAKULTNÍ NEMOCNICE V PRAZE, FONIATRICKÁ KLINIKA",,50.077190450365,14.426045772267,ŽITNÁ,569/24,12000.0,PRAHA 2,,CZ,,,,,FAKULTNÍ NEMOCNICE,,,420224961111.0,vfn@vfn.cz,https://www.vfn.cz/,01/09/2023,22/04/2026,,
CZ_241,"VŠEOBECNÁ FAKULTNÍ NEMOCNICE V PRAZE, KLINIKA DÌTSKÉHO LÉKAØSTVÍ, ÚSTAV SOUD. LÉKAØSTVÍ, ÚLBLD",,50.069834262122,14.428616755691,KE KARLOVU,455/2,12000.0,PRAHA 2,,CZ,,,,,FAKULTNÍ NEMOCNICE,,"ZAØÍZENÍ LPS, SAM.ORD.PRAKT.LÉKAØE PRO DÌTI A DOROST",420224961111.0,vfn@vfn.cz,https://www.vfn.cz/,01/09/2023,22/04/2026,,
CZ_240,"VŠEOBECNÁ FAKULTNÍ NEMOCNICE V PRAZE, UROLOGICKÁ KLINIKA",,50.071491309217,14.428244482755,KE KARLOVU,459/6,12000.0,PRAHA 2,,CZ,,,,,FAKULTNÍ NEMOCNICE,,,420224961111.0,vfn@vfn.cz,https://www.vfn.cz/,01/09/2023,22/04/2026,,
CZ_237,"VŠEOBECNÁ FAKULTNÍ NEMOCNICE V PRAZE, GYNEKOLOGICKO - PORODNICKÁ KLINIKA",,50.071397293088,14.426581968372,APOLINÁØSKÁ,441/18,12800.0,PRAHA 2,,CZ,,,,,FAKULTNÍ NEMOCNICE,,PORODNICE,420224961111.0,vfn@vfn.cz,https://www.vfn.cz/,01/09/2023,22/04/2026,,
CZ_234,"VŠEOBECNÁ FAKULTNÍ NEMOCNICE V PRAZE, KLINIKA ADIKTOLOGIE",,50.070744530412,14.423137554406,APOLINÁØSKÁ,447/4A,12800.0,PRAHA 2,,CZ,,,,,FAKULTNÍ NEMOCNICE,,,420224961111.0,vfn@vfn.cz,https://www.vfn.cz/,01/09/2023,22/04/2026,,
CZ_233,"VŠEOBECNÁ FAKULTNÍ NEMOCNICE V PRAZE, PSYCHIATRICKÁ KLINIKA, SEXUOLOGICKÝ ÚSTAV",,50.072125828619,14.427616928714,KE KARLOVU,460/11,12000.0,PRAHA 2,,CZ,,,,,FAKULTNÍ NEMOCNICE,,,420224961111.0,vfn@vfn.cz,https://www.vfn.cz/,01/09/2023,22/04/2026,,
CZ_232,"VŠEOBECNÁ FAKULTNÍ NEMOCNICE V PRAZE, NEUROLOGICKÁ KLINIKA",,50.074055295847,14.424949221604,KATEØINSKÁ,468/30,12000.0,PRAHA 2,,CZ,,,,,FAKULTNÍ NEMOCNICE,,,420224961111.0,vfn@vfn.cz,https://www.vfn.cz/,01/09/2023,22/04/2026,,
CZ_230,"VŠEOBECNÁ FAKULTNÍ NEMOCNICE V PRAZE, GERIATRICKÁ KLINIKA",,50.071459229998,14.435010222314,LONDÝNSKÁ,545/15,12000.0,PRAHA 2,,CZ,,,,,FAKULTNÍ NEMOCNICE,,,420224961111.0,vfn@vfn.cz,https://www.vfn.cz/,01/09/2023,22/04/2026,,
CZ_229,"VŠEOBECNÁ FAKULTNÍ NEMOCNICE V PRAZE, INTERNÍ ODDÌLENÍ STRAHOV",,50.079115856366,14.39150742677,ŠERMÍØSKÁ,1921/4,16900.0,PRAHA 6,,CZ,,,,,FAKULTNÍ NEMOCNICE,,,420224961111.0,vfn@vfn.cz,https://www.vfn.cz/,01/09/2023,22/04/2026,,
CZ_228,"VŠEOBECNÁ FAKULTNÍ NEMOCNICE V PRAZE, III. INTERNÍ KLINIKA",,50.073634990195,14.420968979462,U NEMOCNICE,504/1,12800.0,PRAHA 2,,CZ,,,,,FAKULTNÍ NEMOCNICE,,,420224961111.0,vfn@vfn.cz,https://www.vfn.cz/,01/09/2023,22/04/2026,,
IT_207-190552,CASA DI CURA CLINICA DEL MEDITERRANEO,,36.91951367,14.70417027,,,,RAGUSA,"VIA ETTORE FIERAMOSCA,100",IT,,100,,,,Public,CARDIOLOGIA | CHIRURGIA GENERALE | CHIRURGIA MAXILLO FACCIALE | CHIRURGIA PLASTICA | CHIRURGIA VASCOLARE | NEUROLOGIA | OCULISTICA | ORTOPEDIA E TRAUMATOLOGIA | OSTETRICIA E GINECOLOGIA | OTORINOLARINGOIATRIA | UROLOGIA | RECUPERO E RIABILITAZIONE,,,,31/12/2021,22/04/2026,-1,
PL_439,SZPITAL POWIATOWY SPÓŁKA Z OGRANICZONĄ ODPOWIEDZIALNOSCIĄ W PASŁĘKU,,54.0628285166317,19.6629561591683,UL. KOPERNIKA,24A,14-400,PASŁĘK,,PL,,,,,,,IZBA PRZYJĘĆ SZPITALA | ODDZIAŁ PEDIATRYCZNY | ODDZIAŁ CHORÓB WEWNĘTRZNYCH,"55 249 15 02;55 249 15 76,   55 249 15 53;55 249 15 88,  55 249 15 33",sekretariat@szpitalpaslek.com;sekretariat@szpitalpaslek.com;sekretariat@szpitalpaslek.com,,25/03/2021,22/04/2026,-2,
IT_201-41032,CITY CLINIC SRL,,46.469505631091,11.3186079960729,,,,BOLZANO,VIA WALTRAUD GEBERT DEEG 3G,IT,,6,,,,Public,CHIRURGIA GENERALE,,,,31/12/2021,22/04/2026,-2,
IT_209-190354,P.O.ABELE AJELLO-MAZARA D.VALLO,,37.65718577,12.60046183,,,,MAZARA DEL VALLO,VIA SALEMI N°175,IT,,87,,,,Public,CARDIOLOGIA | CHIRURGIA GENERALE | MALATTIE INFETTIVE E TROPICALI | MEDICINA GENERALE | NEUROLOGIA | OSTETRICIA E GINECOLOGIA | UNITA` CORONARICA,,,,31/12/2021,22/04/2026,-1,
IT_206-190718,CASA DI CURA LATTERI VALSAVA S.R.L.,,38.1409905,13.346334,,,,PALERMO,"VIA F. CORDOVA, 62",IT,,54,,,,Public,DAY HOSPITAL | CHIRURGIA GENERALE | ORTOPEDIA E TRAUMATOLOGIA | UROLOGIA | RECUPERO E RIABILITAZIONE | GASTROENTEROLOGIA | DAY SURGERY,,,,31/12/2021,22/04/2026,-1,
DK_27,SYDVESTJYSK SYGEHUS – BRØRUP VENEKLINIK,,55.48116,9.02187,SKOLEGADE 12 A,,6650,BRØRUP,,DK,,,,,,,,,,,,22/04/2026,-1,
DK_32,ODENSE UNIVERSITETSHOSPITAL/SVENDBORG – NYBORG,,55.31639,10.78713,VESTERGADE 17,,5800,NYBORG,,DK,,,,,,,,,,,,22/04/2026,-1,
DK_34,ODENSE UNIVERSITETSHOSPITAL/SVENDBORG – ÆRØSKØBING,,54.89261,10.40626,SYGEHUSVEJEN 18,,5970,ÆRØSKØBING,,DK,,,,,,,,,,,,22/04/2026,-1,
DK_41,REGIONSHOSPITALET RANDERS – GRENAA (SUNDHEDSHUS),,56.41847,10.86303,SYGEHUSVEJ 15-19,,8500,GRENÅ,,DK,,,,,,,,,,,,22/04/2026,-1,
DK_45,HOSPITALSENHEDEN MIDT – HAMMEL NEUROCENTER,,56.25599,9.8698,VOLDBYVEJ 15A,,8450,HAMMEL,,DK,,,,,,,,,,,,22/04/2026,-1,
DK_52,REGIONSHOSPITALET HORSENS – BRÆDSTRUP LIVSSTILSCENTER,,55.97382,9.6167,SYGEHUSVEJ 20,,8740,BRÆDSTRUP,,DK,,,,,,,,,,,,22/04/2026,-1,
IT_201-200021,P.O. 'A.G. MASTINO' - BOSA,,40.298498,8.495947,,,,BOSA,VIA G.A. PISCHEDDA,IT,,34,,,,Public,CHIRURGIA GENERALE | MEDICINA GENERALE,,,,31/12/2021,22/04/2026,-1,
IT_202-90602-03,OSPEDALE DELLE APUANE,,44.01935459,10.09933828,,,,MASSA,VIA MATTEI 21,IT,,344,,,,Public,CARDIOLOGIA | CHIRURGIA GENERALE | CHIRURGIA VASCOLARE | MALATTIE INFETTIVE E TROPICALI | MEDICINA GENERALE | NEFROLOGIA | NEUROLOGIA | OCULISTICA | ORTOPEDIA E TRAUMATOLOGIA | OSTETRICIA E GINECOLOGIA | OTORINOLARINGOIATRIA | PEDIATRIA | PSICHIATRIA | UROLOGIA | TERAPIA INTENSIVA | UNITA` CORONARICA | DERMATOLOGIA | NEONATOLOGIA | ONCOLOGIA | PNEUMOLOGIA | RADIOLOGIA,,,,31/12/2021,22/04/2026,-1,
IT_205-150070,OSPEDALE RIZZOLI,,40.75031844,13.89585036,,,,LACCO AMENO,VIA FUNDERA LACCO AMENO,IT,,94,,,,Public,CARDIOLOGIA | CHIRURGIA GENERALE | MEDICINA GENERALE | ORTOPEDIA E TRAUMATOLOGIA | OSTETRICIA E GINECOLOGIA | PEDIATRIA | TERAPIA INTENSIVA | UNITA` CORONARICA | ONCOLOGIA | TERAPIA SEMI-INTENSIVA,,,,31/12/2021,22/04/2026,-1,
IT_205-180075,CASA DI CURA 'VILLA CAMINITI',,38.215801223756124,15.638695925279263,,,,VILLA SAN GIOVANNI,"VIA NAZIONALE, 421",IT,,70,,,,Public,CHIRURGIA GENERALE | ORTOPEDIA E TRAUMATOLOGIA | RECUPERO E RIABILITAZIONE,,,,31/12/2021,22/04/2026,-1,
IT_201-200028,P.O.SIRAI,,39.18580702,8.50745848,,,,CARBONIA,LOCALITA' SIRAI,IT,,142,,,,Public,CARDIOLOGIA | CHIRURGIA GENERALE | EMATOLOGIA | MEDICINA GENERALE | NEFROLOGIA | NEUROLOGIA | ORTOPEDIA E TRAUMATOLOGIA | PSICHIATRIA | UROLOGIA | TERAPIA INTENSIVA | UNITA` CORONARICA | ONCOLOGIA,,,,31/12/2021,22/04/2026,-1,
IT_209-190353,P.O.PAOLO BORSELLINO - MARSALA,,37.79491783,12.49853826,,,,MARSALA,VIA SALEMI - C/DA CARDILLA,IT,,150,,,,Public,CHIRURGIA GENERALE | MEDICINA GENERALE | OSTETRICIA E GINECOLOGIA | PEDIATRIA | TERAPIA INTENSIVA | PNEUMOLOGIA | TERAPIA SEMI-INTENSIVA,,,,31/12/2021,22/04/2026,-1,
IT_203-130024,CASA DI CURA VILLA SERENA,,42.5179555,14.1150520,,,,CITTA' SANT'ANGELO,"VIALE L. PERUZZI, 19",IT,,367,,,,Public,CHIRURGIA GENERALE | GERIATRIA | MEDICINA GENERALE | NEUROLOGIA | ORTOPEDIA E TRAUMATOLOGIA | PSICHIATRIA | TERAPIA INTENSIVA | RECUPERO E RIABILITAZIONE | LUNGODEGENTI,,,,31/12/2021,22/04/2026,-1,
IT_201-140001,PRESIDIO OSPEDALIERO 'A.CARDARELLI',,41.54786333,14.62232672,,,,CAMPOBASSO,VIA L. MONTALBÒ SNC C.DA TAPPINO,IT,,308,,,,Public,CARDIOLOGIA | CHIRURGIA GENERALE | CHIRURGIA VASCOLARE | MALATTIE ENDOCRINE DEL RICAMBIO E NUTRIZ | MALATTIE INFETTIVE E TROPICALI | MEDICINA GENERALE | NEFROLOGIA | NEUROLOGIA | OCULISTICA | ODONTOIATRIA E STOMATOLOGIA | ORTOPEDIA E TRAUMATOLOGIA | OSTETRICIA E GINECOLOGIA | OTORINOLARINGOIATRIA | PEDIATRIA | PSICHIATRIA | UROLOGIA | TERAPIA INTENSIVA | UNITA` CORONARICA | ASTANTERIA | RECUPERO E RIABILITAZIONE | NEONATOLOGIA | ONCOLOGIA | TERAPIA INTENSIVA NEONATALE | TERAPIA DEL DOLORE | DETENUTI,,,,31/12/2021,22/04/2026,-1,
IT_903-150903-03,CTO,,40.86867946,14.24591818,,,,NAPOLI,VIALE COLLI AMINEI 21,IT,,152,,,,Private,CARDIOLOGIA | CHIRURGIA GENERALE | NEUROCHIRURGIA | NEUROLOGIA | ORTOPEDIA E TRAUMATOLOGIA | TERAPIA INTENSIVA | ASTANTERIA | RECUPERO E RIABILITAZIONE,,,,31/12/2021,22/04/2026,-1,
IT_116-160063,OSPEDALE GALLIPOLI 'SACRO CUORE DI GESU',,40.05652124,18.01522561,,,,GALLIPOLI,STRADA PROV.LE ALEZIO-GALLIPOLI,IT,,217,,,,Public,CARDIOLOGIA | CHIRURGIA GENERALE | MEDICINA GENERALE | ORTOPEDIA E TRAUMATOLOGIA | OSTETRICIA E GINECOLOGIA | PEDIATRIA | TERAPIA INTENSIVA | UNITA` CORONARICA | LUNGODEGENTI | ONCOLOGIA | PNEUMOLOGIA,,,,31/12/2021,22/04/2026,-1,
IT_201-180010-01,OSPEDALE CORIGLIANO,,39.59106877,16.52044231,,,,CORIGLIANO-ROSSANO,VIALE RIMEMBRANZE,IT,,139,,,,Public,DAY HOSPITAL | CHIRURGIA GENERALE | MEDICINA GENERALE | NEUROLOGIA | OSTETRICIA E GINECOLOGIA | OTORINOLARINGOIATRIA | PEDIATRIA | PSICHIATRIA | UROLOGIA,,,,31/12/2021,22/04/2026,-1,
IT_114-160078,OSPEDALE REGIONALE EE 'MIULLI',,40.86354388,16.80287479,,,,ACQUAVIVA DELLE FONTI,S.P. ACQUAVIVA SANTERAMO 127,IT,,686,,,,Private,CARDIOLOGIA | CHIRURGIA GENERALE | CHIRURGIA MAXILLO FACCIALE | CHIRURGIA VASCOLARE | EMATOLOGIA | MALATTIE ENDOCRINE DEL RICAMBIO E NUTRIZ | GERIATRIA | MALATTIE INFETTIVE E TROPICALI | MEDICINA GENERALE | NEFROLOGIA | NEUROCHIRURGIA | NEUROLOGIA | OCULISTICA | ORTOPEDIA E TRAUMATOLOGIA | OSTETRICIA E GINECOLOGIA | OTORINOLARINGOIATRIA | PEDIATRIA | UROLOGIA | TERAPIA INTENSIVA | UNITA` CORONARICA | DERMATOLOGIA | RECUPERO E RIABILITAZIONE | GASTROENTEROLOGIA | NEONATOLOGIA | ONCOLOGIA | PNEUMOLOGIA | TERAPIA INTENSIVA NEONATALE | TERAPIA SEMI-INTENSIVA | TERAPIA DEL DOLORE,,,,31/12/2021,22/04/2026,-1,
IT_205-120088,I.N.I. SRL DIVISIONE MEDICUS HOTEL,,41.94898674,12.80082069,,,,TIVOLI,"STRADA COLLE RIPOLI, 16",IT,,88,,,,Public,IMMUNOLOGIA | RECUPERO E RIABILITAZIONE,,,,31/12/2021,22/04/2026,-1,
IT_202-150371,CASA DI CURA VILLA MARGHERITA SRL,,41.10677226,14.82217320,,,,BENEVENTO,CONTRADA PIANO CAPPELLE,IT,,135,,,,Public,RECUPERO E RIABILITAZIONE | LUNGODEGENTI,,,,31/12/2021,22/04/2026,-1,
IT_201-150150-02,P.SP.RIABILITATIVO DON GNOCCHI,,40.93106280,15.16169235,,,,SANT'ANGELO DEI LOMBARDI,VIA QUADRIVIO,IT,,111,,,,Public,RECUPERO E RIABILITAZIONE | NEURO-RIABILITAZIONE,,,,31/12/2021,22/04/2026,-1,
IT_203-150423,CLINICA PADRE PIO S.R.L.,,41.13647641,13.86523877,,,,MONDRAGONE,VIA APPIA ANTICA LOC. INCALDANA,IT,,158,,,,Public,CHIRURGIA GENERALE | IMMUNOLOGIA | MEDICINA GENERALE | UROLOGIA,,,,31/12/2021,22/04/2026,-1,
IT_904-150904-01,A.O. OO.RR. SANGIOVANNI DI DIO E RUGGI,,40.64920208,14.82893098,,,,SALERNO,S. LEONARDO,IT,,707,,,,Public,CARDIOCHIRURGIA | CARDIOLOGIA | CHIRURGIA GENERALE | CHIRURGIA MAXILLO FACCIALE | CHIRURGIA PEDIATRICA | CHIRURGIA PLASTICA | CHIRURGIA TORACICA | CHIRURGIA VASCOLARE | EMATOLOGIA | MALATTIE ENDOCRINE DEL RICAMBIO E NUTRIZ | MALATTIE INFETTIVE E TROPICALI | MEDICINA GENERALE | NEFROLOGIA | NEUROCHIRURGIA | NEUROLOGIA | NEUROPSICHIATRIA INFANTILE | OCULISTICA | ORTOPEDIA E TRAUMATOLOGIA | OSTETRICIA E GINECOLOGIA | OTORINOLARINGOIATRIA | PEDIATRIA | PSICHIATRIA | UROLOGIA | TERAPIA INTENSIVA | UNITA` CORONARICA | EMODIALISI | RECUPERO E RIABILITAZIONE | GASTROENTEROLOGIA | NEONATOLOGIA | ONCOLOGIA | PNEUMOLOGIA | TERAPIA INTENSIVA NEONATALE | TERAPIA SEMI-INTENSIVA | DETENUTI,,,,31/12/2021,22/04/2026,-1,
IT_112-160172-03,OSPEDALE MOSCATI - TARANTO/STATTE,,40.53958291,17.27698056,,,,STATTE,VIA PER MARTINA FRANCA,IT,,256,,,,Public,EMATOLOGIA | GERIATRIA | MALATTIE INFETTIVE E TROPICALI | MEDICINA GENERALE | OCULISTICA | OTORINOLARINGOIATRIA | PSICHIATRIA | TERAPIA INTENSIVA | ONCOLOGIA | PNEUMOLOGIA | TERAPIA SEMI-INTENSIVA,,,,31/12/2021,22/04/2026,-1,
IT_116-160150,CASA DI CURA CITTA' DI LECCE,,40.34051501,18.12918677,,,,LECCE,VIA PROVINCIALE PER ARNESANO KM. 4,IT,,118,,,,Public,CARDIOCHIRURGIA | CARDIOLOGIA | CHIRURGIA GENERALE | NEUROCHIRURGIA | OCULISTICA | ORTOPEDIA E TRAUMATOLOGIA | TERAPIA INTENSIVA | UNITA` CORONARICA | RECUPERO E RIABILITAZIONE | ONCOLOGIA,,,,31/12/2021,22/04/2026,1,
IT_204-190321,P. O. 'FERRO-CAPRA-BRANCIFORTE',,37.65238176,14.41127256,,,,LEONFORTE,CONTRADA S. GIOVANNI,IT,,62,,,,Public,CHIRURGIA GENERALE | MALATTIE INFETTIVE E TROPICALI | MEDICINA GENERALE | RECUPERO E RIABILITAZIONE | LUNGODEGENTI,,,,31/12/2021,22/04/2026,-1,
IT_205-190323,P.O. 'NUOVO CUTRONI ZODDA' BARCELLONA,,38.15204709,15.22130282,,,,BARCELLONA POZZO DI GOTTO,CONTRADA S. ANDREA,IT,,46,,,,Public,MALATTIE INFETTIVE E TROPICALI | MEDICINA GENERALE | PSICHIATRIA | PNEUMOLOGIA,,,,31/12/2021,22/04/2026,-1,
IT_912-50912-02,AOUI DI VERONA BORGO ROMA,,45.40442,10.99188,,,,VERONA,PIAZZALE L.A. SCURO,IT,,355,,,,Public,ALLERGOLOGIA | ANGIOLOGIA | CHIRURGIA GENERALE | CHIRURGIA MAXILLO FACCIALE | EMATOLOGIA | MALATTIE INFETTIVE E TROPICALI | MEDICINA GENERALE | NEUROLOGIA | OCULISTICA | ORTOPEDIA E TRAUMATOLOGIA | PSICHIATRIA | TERAPIA INTENSIVA | GASTROENTEROLOGIA | ONCOLOGIA | REUMATOLOGIA | DAY SURGERY | CURE PALLIATIVE,,,,31/12/2021,22/04/2026,-1,
IT_902-90902,AZIENDA OSPEDALIERA UNIVERSITARIA SENESE,,43.342,11.3276,,,,SIENA,V.LE BRACCI - LOC.LE SCOTTE,IT,,731,,,,Public,CARDIOCHIRURGIA | CARDIOLOGIA | CHIRURGIA GENERALE | CHIRURGIA MAXILLO FACCIALE | CHIRURGIA PEDIATRICA | CHIRURGIA PLASTICA | CHIRURGIA TORACICA | CHIRURGIA VASCOLARE | EMATOLOGIA | MALATTIE ENDOCRINE DEL RICAMBIO E NUTRIZ | MALATTIE INFETTIVE E TROPICALI | MEDICINA GENERALE | NEUROCHIRURGIA | NEUROLOGIA | NEUROPSICHIATRIA INFANTILE | OCULISTICA | ORTOPEDIA E TRAUMATOLOGIA | OSTETRICIA E GINECOLOGIA | OTORINOLARINGOIATRIA | PEDIATRIA | PSICHIATRIA | UROLOGIA | NEFROLOGIA (ABILITATO AL TRAPIANTO RENE) | TERAPIA INTENSIVA | UNITA` CORONARICA | DERMATOLOGIA | RECUPERO E RIABILITAZIONE | GASTROENTEROLOGIA | ONCOLOGIA | PNEUMOLOGIA | RADIOTERAPIA | REUMATOLOGIA | TERAPIA INTENSIVA NEONATALE,,,,31/12/2021,22/04/2026,-1,
DK_10057,"AALBORG UNIVERSITETSHOSPITAL, SYD",,57.037953,9.909282,,,9000,AALBORG,HOBROVEJ 18 - 22,DK,,,,,,public,,,,http://www.aalborguh.rn.dk/syd,06/10/2023,22/04/2026,-1,
DK_9336,"ESBJERG OG GRINDSTED SYGEHUS, ESBJERG",,55.473859,8.456703,,,6700,ESBJERG,FINSENSGADE 35,DK,,,,,,public,,,,https://esbjerggrindstedsygehus.dk/,06/10/2023,22/04/2026,-1,
IT_928-190928,AZ.OSP.UNIV.P.GIACCONE,,38.10474,13.36274,,,,PALERMO,VIA DEL VESPRO N. 129,IT,,477,,,,Public,ANGIOLOGIA | CARDIOCHIRURGIA | CARDIOLOGIA | CHIRURGIA GENERALE | CHIRURGIA PEDIATRICA | CHIRURGIA PLASTICA | CHIRURGIA VASCOLARE | EMATOLOGIA | MALATTIE ENDOCRINE DEL RICAMBIO E NUTRIZ | MALATTIE INFETTIVE E TROPICALI | MEDICINA GENERALE | NEFROLOGIA | NEUROCHIRURGIA | NEUROLOGIA | NEUROPSICHIATRIA INFANTILE | OCULISTICA | ODONTOIATRIA E STOMATOLOGIA | ORTOPEDIA E TRAUMATOLOGIA | OSTETRICIA E GINECOLOGIA | OTORINOLARINGOIATRIA | UROLOGIA | TERAPIA INTENSIVA | UNITA` CORONARICA | ASTANTERIA | DERMATOLOGIA | RECUPERO E RIABILITAZIONE | GASTROENTEROLOGIA | LUNGODEGENTI | NEONATOLOGIA | ONCOLOGIA | RADIOLOGIA | REUMATOLOGIA | TERAPIA INTENSIVA NEONATALE,,,,31/12/2021,22/04/2026,-1,
IT_906-200906-02,POLICLINICO MONSERRATO,,39.21454,9.11049,,,,CAGLIARI,"SS 554 KM 4,500 POLICLINICO MONSERRATO",IT,,430,,,,Public,CARDIOLOGIA | CHIRURGIA GENERALE | CHIRURGIA PLASTICA | CHIRURGIA VASCOLARE | MALATTIE ENDOCRINE DEL RICAMBIO E NUTRIZ | MEDICINA GENERALE | NEUROLOGIA | ODONTOIATRIA E STOMATOLOGIA | ORTOPEDIA E TRAUMATOLOGIA | OSTETRICIA E GINECOLOGIA | OTORINOLARINGOIATRIA | TERAPIA INTENSIVA | UNITA` CORONARICA | GASTROENTEROLOGIA | NEONATOLOGIA | ONCOLOGIA | REUMATOLOGIA | TERAPIA INTENSIVA NEONATALE,,,,31/12/2021,22/04/2026,-1,
DK_10228,SUNDHEDSHUS LEMVIG,,56.549895,8.314872,,,7620,LEMVIG,ØSTERGADE 30,DK,,,,,,public,,,,http://www.vest.rm.dk/,06/10/2023,22/04/2026,-1,
DK_10210,SAMSØ SYGE- OG SUNDHEDSHUS,,55.830646,10.591169,,,8305,SAMSØ,SYGEHUSVEJ 26,DK,,,,,,public,,,,,06/10/2023,22/04/2026,-1,
DK_10149,SUNDHEDSHUS RINGKØBING,,56.090652,8.250208,,,6950,RINGKØBING,NØRREPORT 18,DK,,,,,,public,,,,http://www.sundhedshusringkoebing.dk/,06/10/2023,22/04/2026,-1,
DK_10083,"NEUROENHED NORD, BRØNDERSLEV",,57.27725,9.949489,,,9700,BRØNDERSLEV,NØRREGADE 77,DK,,,,,,public,,,,https://rhnordjylland.rn.dk/neurorehabiliteringbr,06/10/2023,22/04/2026,-1,
DK_10043,SKAGEN GIGT- OG RYGCENTER,,57.718893,10.576523,,,9990,SKAGEN,HANS BAGHS VEJ 25,DK,,,,,,public,,,,https://rhnordjylland.rn.dk/gigtogryg,06/10/2023,22/04/2026,-1,
IT_907-160907-02,OSPEDALE GIOVANNI XXIII,,41.09894,16.88915,,,,BARI,"VIA AMENDOLA, 207",IT,,169,,,,Public,CARDIOCHIRURGIA PEDIATRICA | CARDIOLOGIA | CHIRURGIA PEDIATRICA | MALATTIE ENDOCRINE DEL RICAMBIO E NUTRIZ | MALATTIE INFETTIVE E TROPICALI | MEDICINA GENERALE | NEUROLOGIA | ORTOPEDIA E TRAUMATOLOGIA | PEDIATRIA | TERAPIA INTENSIVA | NEFROLOGIA PEDIATRICA | UROLOGIA PEDIATRICA,,,,31/12/2021,22/04/2026,-1,
IT_213-10641,CASA DI CURA VILLA IGEA,,44.68093,8.46751,,,,ACQUI TERME,STRADA MOIRANO 2,IT,,70,,,,Public,CHIRURGIA GENERALE | IMMUNOLOGIA | MEDICINA GENERALE | ORTOPEDIA E TRAUMATOLOGIA | RECUPERO E RIABILITAZIONE,,,,31/12/2021,22/04/2026,-1,
IT_506-50123,CASA DI CURA ABANO TERME POLISPEC. E TER,,45.34853,11.78661,,,,ABANO TERME,"PIAZZA COLOMBO, 1",IT,,192,,,,Public,CHIRURGIA GENERALE | MEDICINA GENERALE | ORTOPEDIA E TRAUMATOLOGIA | OSTETRICIA E GINECOLOGIA | TERAPIA INTENSIVA | RECUPERO E RIABILITAZIONE,,,,31/12/2021,22/04/2026,-1,
IT_112-160172-01,OSPEDALE SS ANNUNZIATA - TARANTO,,40.46396,17.24755,,,,TARANTO,VIA BRUNO,IT,,366,,,,Public,CARDIOLOGIA | CHIRURGIA GENERALE | CHIRURGIA VASCOLARE | EMATOLOGIA | MALATTIE ENDOCRINE DEL RICAMBIO E NUTRIZ | MEDICINA GENERALE | NEFROLOGIA | NEUROCHIRURGIA | NEUROLOGIA | OCULISTICA | ORTOPEDIA E TRAUMATOLOGIA | OSTETRICIA E GINECOLOGIA | PEDIATRIA | UROLOGIA | TERAPIA INTENSIVA | UNITA` CORONARICA | GASTROENTEROLOGIA | NEONATOLOGIA | TERAPIA INTENSIVA NEONATALE,,,,31/12/2021,22/04/2026,-1,
IT_201-130005,PRESIDIO OSPEDALIERO CASTEL DI SANGRO,,41.77586,14.11601,,,,CASTEL DI SANGRO,"VIA LA CROCE,1",IT,,29,,,,Public,CHIRURGIA GENERALE | MEDICINA GENERALE | ORTOPEDIA E TRAUMATOLOGIA,,,,31/12/2021,22/04/2026,-1,
IT_109-80068-06,"STABILIMENTO OSPEDALIERO "" SS. ANNUNZIAT",,44.72412,11.29086,,,,CENTO,"VIA VICINI, 2",IT,,155,,,,Public,CARDIOLOGIA | CHIRURGIA GENERALE | MEDICINA GENERALE | ORTOPEDIA E TRAUMATOLOGIA | OSTETRICIA E GINECOLOGIA | UROLOGIA | TERAPIA INTENSIVA | UNITA` CORONARICA | RECUPERO E RIABILITAZIONE | LUNGODEGENTI,,,,31/12/2021,22/04/2026,-1,
IT_101-42004,PRESIDIO OSPEDALIERO DI BORGO VALSUGANA,,46.05656,11.46287,,,,BORGO VALSUGANA,VIALE VICENZA 9,IT,,74,,,,Public,CHIRURGIA GENERALE | MEDICINA GENERALE | ODONTOIATRIA E STOMATOLOGIA | ORTOPEDIA E TRAUMATOLOGIA | PSICHIATRIA,,,,31/12/2021,22/04/2026,-1,
IT_207-150154-01,P.O. UMBERTO I NOCERA INFERIORE,,40.74375,14.65063,,,,NOCERA INFERIORE,VIA S. FRANCESCO,IT,,280,,,,Public,CARDIOLOGIA | CHIRURGIA GENERALE | CHIRURGIA VASCOLARE | MEDICINA GENERALE | NEFROLOGIA | NEUROCHIRURGIA | NEUROLOGIA | OCULISTICA | ODONTOIATRIA E STOMATOLOGIA | ORTOPEDIA E TRAUMATOLOGIA | OSTETRICIA E GINECOLOGIA | OTORINOLARINGOIATRIA | PEDIATRIA | PSICHIATRIA | UROLOGIA | TERAPIA INTENSIVA | UNITA` CORONARICA | RECUPERO E RIABILITAZIONE | GASTROENTEROLOGIA | NEONATOLOGIA | ONCOEMATOLOGIA PEDIATRICA | TERAPIA INTENSIVA NEONATALE,,,,31/12/2021,22/04/2026,-1,
IT_210-10124-02,OSPEDALE DI CEVA,,44.37718,8.03987,,,,CEVA,REGIONE SAN BERNARDINO 4,IT,,107,,,,Public,DAY HOSPITAL | CHIRURGIA GENERALE | MEDICINA GENERALE | OCULISTICA | OSTETRICIA E GINECOLOGIA | RECUPERO E RIABILITAZIONE,,,,31/12/2021,22/04/2026,-1,
IT_201-90632-06,OBLATE AZIENDA SANITARIA FIRENZE,,43.81293,11.25106,,,,FIRENZE,P.ZZA CAREGGI 1,IT,,11,,,,Public,PSICHIATRIA,,,,31/12/2021,22/04/2026,-1,
IT_201-90632-01,SANTA MARIA NUOVA,,43.77335,11.25936,,,,FIRENZE,P.ZZA S. M. NUOVA 1,IT,,125,,,,Public,CARDIOLOGIA | CHIRURGIA GENERALE | GERIATRIA | MEDICINA GENERALE | NEFROLOGIA | ORTOPEDIA E TRAUMATOLOGIA | OSTETRICIA E GINECOLOGIA | OTORINOLARINGOIATRIA | PSICHIATRIA | TERAPIA INTENSIVA | UNITA` CORONARICA | ASTANTERIA | ONCOLOGIA,,,,31/12/2021,22/04/2026,-1,
IT_503-50098,FONDAZIONE VILLA SALUS,,45.514,12.23871,,,,VENEZIA,VIA TERRAGLIO 114,IT,,240,,,,Private,CHIRURGIA GENERALE | MALATTIE INFETTIVE E TROPICALI | MEDICINA GENERALE | OSTETRICIA E GINECOLOGIA | RECUPERO E RIABILITAZIONE | LUNGODEGENTI | PNEUMOLOGIA | DAY SURGERY,,,,31/12/2021,22/04/2026,-1,
EL_GR128,ΓΕΝΙΚΟ ΝΟΣΟΚΟΜΕΙΟ - Κ.Υ. ΣΗΤΕΙΑΣ,,35.204344,26.09619,,,72300,ΣΗΤΕΙΑ,ΞΕΡΟΚΑΜΑΡΕΣ,EL,YES,,,,ΓΕΝΙΚΑ ΝΟΣΟΚΟΜΕΙΑ,PUBLIC,,2843340100,ghsitia@ghsitia.gr,http://www.ghsitia.gr/,31/12/2023,22/04/2026,1,
EL_GR0166,ΝΕΥΡΟΨΥΧΙΑΤΡΙΚΗ-ΨΥΧΙΑΤΡΙΚΗ ΚΛΙΝΙΚΗ ΣΑΛΠΕΤΡΙΕΡΗ-ΑΦΟΙ ΠΑΠΑΔΟΠΟΥΛΟΙ ΕΠΕ,,38.067705,23.76861,,,14452,ΜΕΤΑΜΟΡΦΩΣΗ,Γ.ΠΑΠΑΝΔΡΕΟΥ 149,EL,NO,,,,ΝΕΥΡΟΨΥΧΙΑΤΡΙΚΑ,PRIVATE,ΝΕΥΡΟΛΌΓΟΙ|ΠΑΘΟΛΌΓΟΙ|ΨΥΧΊΑΤΡΟΙ|ΧΩΡΊΣ ΕΙΔΙΚΌΤΗΤΑ,2102810310,,,31/12/2023,22/04/2026,1,
EL_GR001,251 ΓΕΝ.ΝΟΣ.ΑΕΡΟΠΟΡΙΑΣ,,37.989827,23.78027,,,11526,ΑΘΗΝΑ,ΜΕΣΟΓΕΙΩΝ 1,EL,,,,,ΓΕΝΙΚΑ ΝΟΣΟΚΟΜΕΙΑ,PUBLIC,ΑΙΜΑΤΟΛΌΓΟΙ|ΑΚΤΙΝΟΘΕΡΑΠΕΥΤΈΣ|ΑΚΤΙΝΟΔΙΑΓΝΩΣΤΈΣ (ΑΚΤΙΝ. - ΡΑΔ.)|ΑΝΑΙΣΘΗΣΙΟΛΌΓΟΙ|ΓΑΣΤΡΕΝΤΕΡΟΛΌΓΟΙ|ΔΕΡΜΑΤΟΛΌΓΟΙ - ΑΦΡΟΔΙΣΙΟΛΌΓΟΙ|ΕΝΔΟΚΡΙΝΟΛΌΓΟΙ|ΙΑΤΡΙΚΉΣ ΤΗΣ ΕΡΓΑΣΊΑΣ|ΚΑΡΔΙΟΛΌΓΟΙ|ΚΥΤΤΑΡΟΛΌΓΟΙ|ΜΑΙΕΥΤΉΡΕΣ - ΓΥΝΑΙΚΟΛΌΓΟΙ|ΜΙΚΡΟΒΙΟΛΌΓΟΙ|ΟΥΡΟΛΌΓΟΙ|ΠΑΘΟΛΟΓΟΑΝΑΤΌΜΟΙ|ΠΑΘΟΛΌΓΟΙ|ΠΥΡΗΝΙΚΉΣ ΙΑΤΡΙΚΉΣ|ΦΥΜΑΤΙΟΛΌΓΟΙ - ΠΝΕΥΜΟΝΟΛΌΓΟΙ|ΧΕΙΡΟΥΡΓΟΊ ΓΕΝΙΚΉΣ ΧΕΙΡΟΥΡΓΙΚΉΣ|ΧΕΙΡΟΥΡΓΟΊ ΘΏΡΑΚΑ|ΧΕΙΡΟΥΡΓΟΊ ΠΛΑΣΤΙΚΉΣ ΧΕΙΡΟΥΡΓΙΚΉΣ|ΨΥΧΊΑΤΡΟΙ|ΩΤΟΡΙΝΟΛΑΡΥΓΓΟΛΌΓΟΙ|ΟΓΚΟΛΌΓΟΙ|ΕΝΤΑΤΙΚΟΛΌΓΟΙ,2107643399,,https://www.haf.gr/structure/gea-2/251gna/,31/12/2023,22/04/2026,1,
EL_GR002,ΚΩΝΣΤΑΝΤΟΠΟΥΛΕΙΟ Γ.Ν. Ν. ΙΩΝΙΑΣ,,38.037747,23.7577,,,14233,ΑΘΗΝΑ,ΑΓΙΑΣ ΟΛΓΑΣ 3-5,EL,YES,,,,ΓΕΝΙΚΑ ΝΟΣΟΚΟΜΕΙΑ,PUBLIC,ΑΙΜΑΤΟΛΌΓΟΙ|ΑΚΤΙΝΟΘΕΡΑΠΕΥΤΈΣ|ΑΚΤΙΝΟΔΙΑΓΝΩΣΤΈΣ (ΑΚΤΙΝ. - ΡΑΔ.)|ΑΝΑΙΣΘΗΣΙΟΛΌΓΟΙ|ΓΑΣΤΡΕΝΤΕΡΟΛΌΓΟΙ|ΕΝΔΟΚΡΙΝΟΛΌΓΟΙ|ΚΑΡΔΙΟΛΌΓΟΙ|ΚΥΤΤΑΡΟΛΌΓΟΙ|ΜΑΙΕΥΤΉΡΕΣ - ΓΥΝΑΙΚΟΛΌΓΟΙ|ΜΙΚΡΟΒΙΟΛΌΓΟΙ|ΝΕΥΡΟΛΌΓΟΙ|ΟΔΟΝΤΊΑΤΡΟΙ|ΟΡΘΟΠΕΔΙΚΟΊ|ΟΥΡΟΛΌΓΟΙ|ΟΦΘΑΛΜΊΑΤΡΟΙ|ΠΑΘΟΛΟΓΟΑΝΑΤΌΜΟΙ|ΠΑΘΟΛΌΓΟΙ|ΠΥΡΗΝΙΚΉΣ ΙΑΤΡΙΚΉΣ|ΦΥΜΑΤΙΟΛΌΓΟΙ - ΠΝΕΥΜΟΝΟΛΌΓΟΙ|ΧΕΙΡΟΥΡΓΟΊ ΓΕΝΙΚΉΣ ΧΕΙΡΟΥΡΓΙΚΉΣ|ΧΕΙΡΟΥΡΓΟΊ ΘΏΡΑΚΑ|ΧΕΙΡΟΥΡΓΟΊ ΠΛΑΣΤΙΚΉΣ ΧΕΙΡΟΥΡΓΙΚΉΣ|ΨΥΧΊΑΤΡΟΙ|ΩΤΟΡΙΝΟΛΑΡΥΓΓΟΛΌΓΟΙ|ΑΓΓΕΙΟΧΕΙΡΟΥΡΓΟΊ|ΟΓΚΟΛΌΓΟΙ|ΕΝΤΑΤΙΚΟΛΌΓΟΙ|ΕΠΕΙΓΟΝΤΟΛΌΓΟΙ,2132057000,protokolo@konstantopouleio.gr,http://www.konstantopouleio.gr/,31/12/2023,22/04/2026,1,
EL_GR003,Π.Γ.Ν. ΑΘΗΝΩΝ ΑΛΕΞΑΝΔΡΑ,,37.980340,23.75496,,,11528,ΑΘΗΝΑ,ΒΑΣ.ΣΟΦΙΑΣ 80,EL,YES,,,,ΓΕΝΙΚΑ ΝΟΣΟΚΟΜΕΙΑ,PUBLIC,ΑΚΤΙΝΟΘΕΡΑΠΕΥΤΈΣ|ΑΚΤΙΝΟΔΙΑΓΝΩΣΤΈΣ (ΑΚΤΙΝ. - ΡΑΔ.)|ΑΝΑΙΣΘΗΣΙΟΛΌΓΟΙ|ΔΕΡΜΑΤΟΛΌΓΟΙ - ΑΦΡΟΔΙΣΙΟΛΌΓΟΙ|ΜΙΚΡΟΒΙΟΛΌΓΟΙ|ΟΔΟΝΤΊΑΤΡΟΙ|ΠΑΘΟΛΟΓΟΑΝΑΤΌΜΟΙ|ΠΑΘΟΛΌΓΟΙ|ΦΥΜΑΤΙΟΛΌΓΟΙ - ΠΝΕΥΜΟΝΟΛΌΓΟΙ|ΦΥΣΙΚΉΣ ΙΑΤΡΙΚΉΣ ΚΑΙ ΑΠΟΚΑΤΆΣΤΑΣΗΣ|ΧΕΙΡΟΥΡΓΟΊ ΠΛΑΣΤΙΚΉΣ ΧΕΙΡΟΥΡΓΙΚΉΣ,2103381100,hospital@hosp-alexandra.gr,http://www.hosp-alexandra.gr/,31/12/2023,22/04/2026,1,
EL_GR004,ΑΡΕΤΑΙΕΙΟ ΝΟΣΟΚΟΜΕΙΟ ΠΑΝ. ΑΘΗΝΩΝ,,37.979684,23.75433,,,11528,ΑΘΗΝΑ,ΒΑΣ.ΣΟΦΙΑΣ 76,EL,YES,,,,ΓΕΝΙΚΑ ΝΟΣΟΚΟΜΕΙΑ,PUBLIC,ΑΙΜΑΤΟΛΌΓΟΙ|ΑΚΤΙΝΟΔΙΑΓΝΩΣΤΈΣ (ΑΚΤΙΝ. - ΡΑΔ.)|ΑΝΑΙΣΘΗΣΙΟΛΌΓΟΙ|ΓΑΣΤΡΕΝΤΕΡΟΛΌΓΟΙ|ΕΝΔΟΚΡΙΝΟΛΌΓΟΙ|ΚΑΡΔΙΟΛΌΓΟΙ|ΚΥΤΤΑΡΟΛΌΓΟΙ|ΜΑΙΕΥΤΉΡΕΣ - ΓΥΝΑΙΚΟΛΌΓΟΙ|ΜΙΚΡΟΒΙΟΛΌΓΟΙ|ΟΔΟΝΤΊΑΤΡΟΙ|ΠΑΘΟΛΟΓΟΑΝΑΤΌΜΟΙ|ΠΑΘΟΛΌΓΟΙ|ΠΑΙΔΊΑΤΡΟΙ|ΧΕΙΡΟΥΡΓΟΊ ΓΕΝΙΚΉΣ ΧΕΙΡΟΥΡΓΙΚΉΣ|ΧΕΙΡΟΥΡΓΟΊ ΠΑΊΔΩΝ,2107286000,protocol@aretaieio.uoa.gr,https://aretaieio.uoa.gr/,31/12/2023,22/04/2026,1,
EL_GR005,ΓΕΝΙΚΟ ΝΟΣΟΚΟΜΕΙΟ ΑΣΚΛΗΠΙΕΙΟ ΒΟΥΛΑΣ,,37.848433,23.75487,,,16673,ΒΟΥΛΑ,ΒΑΣ.ΠΑΥΛΟΥ 1,EL,YES,,,,ΓΕΝΙΚΑ ΝΟΣΟΚΟΜΕΙΑ,PUBLIC,ΑΚΤΙΝΟΔΙΑΓΝΩΣΤΈΣ (ΑΚΤΙΝ. - ΡΑΔ.)|ΚΑΡΔΙΟΛΌΓΟΙ|ΜΙΚΡΟΒΙΟΛΌΓΟΙ|ΝΕΥΡΟΛΌΓΟΙ|ΟΔΟΝΤΊΑΤΡΟΙ|ΠΑΘΟΛΌΓΟΙ|ΠΑΙΔΟΨΥΧΊΑΤΡΟΙ|ΧΕΙΡΟΥΡΓΟΊ ΓΕΝΙΚΉΣ ΧΕΙΡΟΥΡΓΙΚΉΣ|ΨΥΧΊΑΤΡΟΙ|ΟΓΚΟΛΌΓΟΙ,2132163000,info@asklepieio.gr,https://www.asklepieio.gr/,31/12/2023,22/04/2026,1,
EL_GR006,Γ.Ν.Α.Γ.ΓΕΝΝΗΜΑΤΑΣ¨,,37.997045,23.7828,,,11527,ΑΘΗΝΑ,ΜΕΣΟΓΕΙΩΝ 154,EL,YES,,,,ΓΕΝΙΚΑ ΝΟΣΟΚΟΜΕΙΑ,PUBLIC,ΚΑΡΔΙΟΛΌΓΟΙ|ΜΙΚΡΟΒΙΟΛΌΓΟΙ|ΝΕΥΡΟΛΌΓΟΙ|ΠΑΘΟΛΌΓΟΙ|ΠΑΙΔΟΨΥΧΊΑΤΡΟΙ|ΨΥΧΊΑΤΡΟΙ,2132032000,info@gna-gennimatas.gr,http://www.gna-gennimatas.gr/,31/12/2023,22/04/2026,1,
EL_GR007,ΓΕΝΙΚΟ ΝΟΣΟΚΟΜΕΙΟ ΠΑΙΔΩΝ ΠΕΝΤΕΛΗΣ,,38.050756,23.87527,,,15236,ΠΑΛ.ΠΕΝΤΕΛΗ,ΙΠΠΟΚΡΑΤΟΥΣ 8,EL,YES,,,,ΠΑΙΔΙΑΤΡΙΚΑ,PUBLIC,ΑΚΤΙΝΟΔΙΑΓΝΩΣΤΈΣ (ΑΚΤΙΝ. - ΡΑΔ.)|ΓΕΝΙΚΉΣ ΙΑΤΡΙΚΉΣ|ΚΑΡΔΙΟΛΌΓΟΙ|ΜΙΚΡΟΒΙΟΛΌΓΟΙ|ΝΕΥΡΟΛΌΓΟΙ|ΟΔΟΝΤΊΑΤΡΟΙ|ΠΑΘΟΛΌΓΟΙ|ΨΥΧΊΑΤΡΟΙ,2132052200,paidon@paidon-pentelis.gr,http://www.paidon-pentelis.gr/,31/12/2023,22/04/2026,1,
EL_GR008,ΓΕΝΙΚΟ ΝΟΣΟΚΟΜΕΙΟ ΑΘΗΝΩΝ Η ΕΛΠΙΣ,,37.989799,23.75538,,,11522,ΑΘΗΝΑ,ΔΗΜΗΤΣΑΝΑΣ 7,EL,YES,,,,ΓΕΝΙΚΑ ΝΟΣΟΚΟΜΕΙΑ,PUBLIC,ΑΙΜΑΤΟΛΌΓΟΙ|ΑΚΤΙΝΟΔΙΑΓΝΩΣΤΈΣ (ΑΚΤΙΝ. - ΡΑΔ.)|ΑΝΑΙΣΘΗΣΙΟΛΌΓΟΙ|ΔΕΡΜΑΤΟΛΌΓΟΙ - ΑΦΡΟΔΙΣΙΟΛΌΓΟΙ|ΙΑΤΡΟΔΙΚΑΣΤΈΣ|ΚΑΡΔΙΟΛΌΓΟΙ|ΚΥΤΤΑΡΟΛΌΓΟΙ|ΜΙΚΡΟΒΙΟΛΌΓΟΙ|ΝΕΥΡΟΛΌΓΟΙ|ΝΕΥΡΟΧΕΙΡΟΥΡΓΟΊ|ΟΔΟΝΤΊΑΤΡΟΙ|ΟΡΘΟΠΕΔΙΚΟΊ|ΟΦΘΑΛΜΊΑΤΡΟΙ|ΠΑΘΟΛΟΓΟΑΝΑΤΌΜΟΙ|ΠΑΘΟΛΌΓΟΙ|ΠΑΙΔΊΑΤΡΟΙ.ΡΕΥΜΑΤΟΛΌΓΟΙ|ΦΥΜΑΤΙΟΛΌΓΟΙ - ΠΝΕΥΜΟΝΟΛΌΓΟΙ|ΦΥΣΙΚΉΣ ΙΑΤΡΙΚΉΣ ΚΑΙ ΑΠΟΚΑΤΆΣΤΑΣΗΣ|ΧΕΙΡΟΥΡΓΟΊ ΓΕΝΙΚΉΣ ΧΕΙΡΟΥΡΓΙΚΉΣ|ΧΕΙΡΟΥΡΓΟΊ ΘΏΡΑΚΑ|ΧΕΙΡΟΥΡΓΟΊ ΠΛΑΣΤΙΚΉΣ ΧΕΙΡΟΥΡΓΙΚΉΣ.ΑΓΓΕΙΟΧΕΙΡΟΥΡΓΟΊ|ΓΝΑΘΟΧΕΙΡΟΥΡΓΟΊ|ΕΝΤΑΤΙΚΟΛΌΓΟΙ|ΕΠΕΙΓΟΝΤΟΛΌΓΟΙ,2132039000,info@elpis.gr,http://www.elpis.gr/,31/12/2023,22/04/2026,1,
EL_GR009,Γ.Ν.Α.Ο ΕΥΑΓΓΕΛΙΣΜΟΣ,,37.977644,23.74759,,,11521,ΑΘΗΝΑ,ΥΨΗΛΑΝΤΟΥ 45-47,EL,YES,,,,ΓΕΝΙΚΑ ΝΟΣΟΚΟΜΕΙΑ,PUBLIC,ΑΝΑΙΣΘΗΣΙΟΛΌΓΟΙ|ΚΑΡΔΙΟΛΌΓΟΙ|ΟΦΘΑΛΜΊΑΤΡΟΙ|ΠΑΘΟΛΌΓΟΙ,2132041000,info@evaggelismos-hosp.gr,http://www.evaggelismos-hosp.gr/,31/12/2023,22/04/2026,1,
EL_GR010,Γ.Ν.Α. ΙΠΠΟΚΡΑΤΕΙΟ,,37.983740,23.75971,,,11527,ΑΘΗΝΑ,ΒΑΣ.ΣΟΦΙΑΣ 114,EL,YES,,,,ΓΕΝΙΚΑ ΝΟΣΟΚΟΜΕΙΑ,PUBLIC,ΑΚΤΙΝΟΔΙΑΓΝΩΣΤΈΣ (ΑΚΤΙΝ. - ΡΑΔ.)|ΚΑΡΔΙΟΛΌΓΟΙ|ΜΙΚΡΟΒΙΟΛΌΓΟΙ|ΠΑΘΟΛΌΓΟΙ,2132088000,grammateia@hippocratio.gr,http://www.hippocratio.gr/,31/12/2023,22/04/2026,1,
EL_GR011,Γ.Ν.Α. ΚΟΡΓΙΑΛΕΝΕΙΟ-ΜΠΕΝΑΚΕΙΟ Ε.Ε.Σ,,37.991645,23.76935,,,11526,ΑΘΗΝΑ,ΑΘΑΝΑΣΑΚΗ 1,EL,YES,,,,ΓΕΝΙΚΑ ΝΟΣΟΚΟΜΕΙΑ,PUBLIC,ΑΙΜΑΤΟΛΌΓΟΙ|ΑΚΤΙΝΟΘΕΡΑΠΕΥΤΈΣ|ΑΚΤΙΝΟΔΙΑΓΝΩΣΤΈΣ (ΑΚΤΙΝ. - ΡΑΔ.)|ΑΛΛΕΡΓΙΟΛΌΓΟΙ|ΑΝΑΙΣΘΗΣΙΟΛΌΓΟΙ|ΕΝΔΟΚΡΙΝΟΛΌΓΟΙ|ΚΑΡΔΙΟΛΌΓΟΙ|ΜΙΚΡΟΒΙΟΛΌΓΟΙ|ΝΕΥΡΟΛΌΓΟΙ|ΝΕΥΡΟΧΕΙΡΟΥΡΓΟΊ|ΝΕΦΡΟΛΌΓΟΙ|ΟΡΘΟΠΕΔΙΚΟΊ|ΟΦΘΑΛΜΊΑΤΡΟΙ|ΠΑΘΟΛΟΓΟΑΝΑΤΌΜΟΙ|ΠΑΙΔΊΑΤΡΟΙ|ΠΑΙΔΟΨΥΧΊΑΤΡΟΙ|ΦΥΣΙΚΉΣ ΙΑΤΡΙΚΉΣ ΚΑΙ ΑΠΟΚΑΤΆΣΤΑΣΗΣ|ΧΕΙΡΟΥΡΓΟΊ ΠΑΊΔΩΝ|ΩΤΟΡΙΝΟΛΑΡΥΓΓΟΛΌΓΟΙ|ΓΝΑΘΟΧΕΙΡΟΥΡΓΟΊ|ΕΝΤΑΤΙΚΟΛΌΓΟΙ|ΕΠΕΙΓΟΝΤΟΛΌΓΟΙ,2132068000,prostasia@0310.syzefxis.gov.gr,http://www.korgialenio-benakio.gr/,31/12/2023,22/04/2026,1,
EL_GR012,Γ.Ν.Α. ΛΑΙΚΟ,,37.983400,23.76542,,,11527,ΑΘΗΝΑ,ΑΓ.ΘΩΜΑ 17,EL,YES,,,,ΓΕΝΙΚΑ ΝΟΣΟΚΟΜΕΙΑ,PUBLIC,ΑΙΜΑΤΟΛΌΓΟΙ|ΑΚΤΙΝΟΔΙΑΓΝΩΣΤΈΣ (ΑΚΤΙΝ. - ΡΑΔ.)|ΑΝΑΙΣΘΗΣΙΟΛΌΓΟΙ|ΔΕΡΜΑΤΟΛΌΓΟΙ - ΑΦΡΟΔΙΣΙΟΛΌΓΟΙ|ΕΝΔΟΚΡΙΝΟΛΌΓΟΙ|ΚΥΤΤΑΡΟΛΌΓΟΙ|ΜΙΚΡΟΒΙΟΛΌΓΟΙ|ΝΕΥΡΟΛΌΓΟΙ|ΝΕΥΡΟΧΕΙΡΟΥΡΓΟΊ|ΝΕΦΡΟΛΌΓΟΙ|ΟΔΟΝΤΊΑΤΡΟΙ|ΟΡΘΟΠΕΔΙΚΟΊ|ΟΥΡΟΛΌΓΟΙ|ΟΦΘΑΛΜΊΑΤΡΟΙ|ΠΑΘΟΛΟΓΟΑΝΑΤΌΜΟΙ|ΠΑΙΔΊΑΤΡΟΙ|ΠΑΙΔΟΨΥΧΊΑΤΡΟΙ|ΠΥΡΗΝΙΚΉΣ ΙΑΤΡΙΚΉΣ|ΧΕΙΡΟΥΡΓΟΊ ΘΏΡΑΚΑ|ΧΕΙΡΟΥΡΓΟΊ ΠΑΊΔΩΝ|ΧΕΙΡΟΥΡΓΟΊ ΠΛΑΣΤΙΚΉΣ ΧΕΙΡΟΥΡΓΙΚΉΣ|ΩΤΟΡΙΝΟΛΑΡΥΓΓΟΛΌΓΟΙ|ΕΝΤΑΤΙΚΟΛΌΓΟΙ|ΕΠΕΙΓΟΝΤΟΛΌΓΟΙ|ΙΑΤΡΙΚΉΣ ΓΕΝΕΤΙΚΉΣ,2132060000,gpd@laiko.gr,http://www.laiko.gr/,31/12/2023,22/04/2026,1,
EL_GR013,ΝΑΥΤΙΚΟ ΝΟΣΟΚΟΜΕΙΟ ΑΘΗΝΩΝ,,37.981599,23.75168,,,11521,ΑΘΗΝΑ,ΔΕΙΝΟΚΡΑΤΟΥΣ 70,EL,,,,,ΓΕΝΙΚΑ ΝΟΣΟΚΟΜΕΙΑ,PUBLIC,ΑΙΜΑΤΟΛΌΓΟΙ|ΑΚΤΙΝΟΔΙΑΓΝΩΣΤΈΣ (ΑΚΤΙΝ. - ΡΑΔ.)|ΑΛΛΕΡΓΙΟΛΌΓΟΙ|ΑΝΑΙΣΘΗΣΙΟΛΌΓΟΙ|ΓΑΣΤΡΕΝΤΕΡΟΛΌΓΟΙ|ΕΝΔΟΚΡΙΝΟΛΌΓΟΙ|ΙΑΤΡΙΚΉΣ ΤΗΣ ΕΡΓΑΣΊΑΣ|ΚΑΡΔΙΟΛΌΓΟΙ|ΚΥΤΤΑΡΟΛΌΓΟΙ|ΜΙΚΡΟΒΙΟΛΌΓΟΙ|ΟΔΟΝΤΊΑΤΡΟΙ|ΠΑΘΟΛΟΓΟΑΝΑΤΌΜΟΙ|ΠΑΘΟΛΌΓΟΙ|ΠΑΙΔΟΨΥΧΊΑΤΡΟΙ|ΠΥΡΗΝΙΚΉΣ ΙΑΤΡΙΚΉΣ|ΦΥΜΑΤΙΟΛΌΓΟΙ - ΠΝΕΥΜΟΝΟΛΌΓΟΙ|ΦΥΣΙΚΉΣ ΙΑΤΡΙΚΉΣ ΚΑΙ ΑΠΟΚΑΤΆΣΤΑΣΗΣ|ΧΕΙΡΟΥΡΓΟΊ ΓΕΝΙΚΉΣ ΧΕΙΡΟΥΡΓΙΚΉΣ|ΧΕΙΡΟΥΡΓΟΊ ΘΏΡΑΚΑ|ΨΥΧΊΑΤΡΟΙ|ΩΤΟΡΙΝΟΛΑΡΥΓΓΟΛΌΓΟΙ|ΟΓΚΟΛΌΓΟΙ|ΕΝΤΑΤΙΚΟΛΌΓΟΙ|ΕΠΕΙΓΟΝΤΟΛΌΓΟΙ,2107261000,,https://hellenicnavy.gr/anexartites-ypiresies-pn/naytiko-nosokomeio-athinon/,31/12/2023,22/04/2026,1,
EL_GR014,Ν. Ι. Μ. Τ. Σ,,37.979078,23.75179,,,11521,ΑΘΗΝΑ,ΜΟΝΗ ΠΕΤΡΑΚΗ 12,EL,YES,,,,ΓΕΝΙΚΑ ΝΟΣΟΚΟΜΕΙΑ,PUBLIC,ΑΙΜΑΤΟΛΌΓΟΙ|ΑΚΤΙΝΟΔΙΑΓΝΩΣΤΈΣ (ΑΚΤΙΝ. - ΡΑΔ.)|ΑΝΑΙΣΘΗΣΙΟΛΌΓΟΙ|ΙΑΤΡΙΚΉΣ ΤΗΣ ΕΡΓΑΣΊΑΣ|ΚΑΡΔΙΟΛΌΓΟΙ|ΜΙΚΡΟΒΙΟΛΌΓΟΙ|ΝΕΦΡΟΛΌΓΟΙ|ΠΑΘΟΛΟΓΟΑΝΑΤΌΜΟΙ|ΠΑΘΟΛΌΓΟΙ|ΠΑΙΔΊΑΤΡΟΙ|ΠΥΡΗΝΙΚΉΣ ΙΑΤΡΙΚΉΣ|ΦΥΜΑΤΙΟΛΌΓΟΙ - ΠΝΕΥΜΟΝΟΛΌΓΟΙ|ΧΕΙΡΟΥΡΓΟΊ ΓΕΝΙΚΉΣ ΧΕΙΡΟΥΡΓΙΚΉΣ|ΧΕΙΡΟΥΡΓΟΊ ΘΏΡΑΚΑ|ΕΝΤΑΤΙΚΟΛΌΓΟΙ,2107288001,info-nimts@army.gr,https://417nimts.army.gr/,31/12/2023,22/04/2026,1,
EL_GR015,Ν.Γ.Ν. Η ΠΑΜΜΑΚΑΡΙΣΤΟΣ,,38.014498,23.7315,,,11144,ΑΘΗΝΑ,ΙΑΚΩΒΑΤΩΝ 43,EL,YES,,,,ΓΕΝΙΚΑ ΝΟΣΟΚΟΜΕΙΑ,PUBLIC,ΑΙΜΑΤΟΛΌΓΟΙ|ΑΚΤΙΝΟΘΕΡΑΠΕΥΤΈΣ|ΑΚΤΙΝΟΔΙΑΓΝΩΣΤΈΣ (ΑΚΤΙΝ. - ΡΑΔ.)|ΑΛΛΕΡΓΙΟΛΌΓΟΙ|ΑΝΑΙΣΘΗΣΙΟΛΌΓΟΙ|ΓΑΣΤΡΕΝΤΕΡΟΛΌΓΟΙ|ΓΕΝΙΚΉΣ ΙΑΤΡΙΚΉΣ|ΔΕΡΜΑΤΟΛΌΓΟΙ - ΑΦΡΟΔΙΣΙΟΛΌΓΟΙ|ΕΝΔΟΚΡΙΝΟΛΌΓΟΙ|ΚΑΡΔΙΟΛΌΓΟΙ|ΚΥΤΤΑΡΟΛΌΓΟΙ|ΜΑΙΕΥΤΉΡΕΣ - ΓΥΝΑΙΚΟΛΌΓΟΙ|ΜΙΚΡΟΒΙΟΛΌΓΟΙ|ΝΕΥΡΟΛΌΓΟΙ|ΝΕΥΡΟΧΕΙΡΟΥΡΓΟΊ|ΝΕΦΡΟΛΌΓΟΙ|ΟΔΟΝΤΊΑΤΡΟΙ|ΟΡΘΟΠΕΔΙΚΟΊ|ΟΥΡΟΛΌΓΟΙ|ΟΦΘΑΛΜΊΑΤΡΟΙ|ΠΑΘΟΛΟΓΟΑΝΑΤΌΜΟΙ|ΠΑΘΟΛΌΓΟΙ|ΠΑΙΔΊΑΤΡΟΙ|ΠΑΙΔΟΨΥΧΊΑΤΡΟΙ|ΠΥΡΗΝΙΚΉΣ ΙΑΤΡΙΚΉΣ|ΡΕΥΜΑΤΟΛΌΓΟΙ|ΦΥΜΑΤΙΟΛΌΓΟΙ - ΠΝΕΥΜΟΝΟΛΌΓΟΙ|ΦΥΣΙΚΉΣ ΙΑΤΡΙΚΉΣ ΚΑΙ ΑΠΟΚΑΤΆΣΤΑΣΗΣ|ΧΕΙΡΟΥΡΓΟΊ ΓΕΝΙΚΉΣ ΧΕΙΡΟΥΡΓΙΚΉΣ|ΧΕΙΡΟΥΡΓΟΊ ΘΏΡΑΚΑ|ΧΕΙΡΟΥΡΓΟΊ ΠΑΊΔΩΝ|ΨΥΧΊΑΤΡΟΙ|ΩΤΟΡΙΝΟΛΑΡΥΓΓΟΛΌΓΟΙ|ΑΓΓΕΙΟΧΕΙΡΟΥΡΓΟΊ|ΓΝΑΘΟΧΕΙΡΟΥΡΓΟΊ|ΟΓΚΟΛΌΓΟΙ|ΕΝΤΑΤΙΚΟΛΌΓΟΙ|ΕΠΕΙΓΟΝΤΟΛΌΓΟΙ,2132042100,info@pammakaristos-hosp.gr,http://www.pammakaristos-hosp.gr/,31/12/2023,22/04/2026,1,
EL_GR016,Π.Γ.Ν. ΣΙΣΜΑΝΟΓΛΕΙΟ,,38.046298,23.82818,,,15126,ΜΑΡΟΥΣΙ,ΣΙΣΜΑΝΟΓΛΕΙΟΥ 1,EL,YES,,,,ΓΕΝΙΚΑ ΝΟΣΟΚΟΜΕΙΑ,PUBLIC,ΑΚΤΙΝΟΔΙΑΓΝΩΣΤΈΣ (ΑΚΤΙΝ. - ΡΑΔ.)|ΚΑΡΔΙΟΛΌΓΟΙ|ΜΙΚΡΟΒΙΟΛΌΓΟΙ|ΟΡΘΟΠΕΔΙΚΟΊ|ΟΥΡΟΛΌΓΟΙ|ΠΑΘΟΛΌΓΟΙ|ΦΥΣΙΚΉΣ ΙΑΤΡΙΚΉΣ ΚΑΙ ΑΠΟΚΑΤΆΣΤΑΣΗΣ|ΨΥΧΊΑΤΡΟΙ,2132058001,info@sismanoglio.gr,http://www.sismanoglio.gr/,31/12/2023,22/04/2026,1,
EL_GR017,401 ΣΤΡΑΤ.ΝΟΣ.ΑΘΗΝΩΝ,,37.991774,23.77823,,,15669,ΠΑΠΑΓΟΥ,ΜΕΣΟΓΕΙΩΝ 138,EL,,,,,ΓΕΝΙΚΑ ΝΟΣΟΚΟΜΕΙΑ,PUBLIC,ΑΙΜΑΤΟΛΌΓΟΙ|ΑΚΤΙΝΟΔΙΑΓΝΩΣΤΈΣ (ΑΚΤΙΝ. - ΡΑΔ.)|ΑΝΑΙΣΘΗΣΙΟΛΌΓΟΙ|ΓΑΣΤΡΕΝΤΕΡΟΛΌΓΟΙ|ΓΕΝΙΚΉΣ ΙΑΤΡΙΚΉΣ|ΔΕΡΜΑΤΟΛΌΓΟΙ - ΑΦΡΟΔΙΣΙΟΛΌΓΟΙ|ΚΑΡΔΙΟΛΌΓΟΙ|ΜΑΙΕΥΤΉΡΕΣ - ΓΥΝΑΙΚΟΛΌΓΟΙ|ΜΙΚΡΟΒΙΟΛΌΓΟΙ|ΝΕΥΡΟΛΌΓΟΙ|ΝΕΥΡΟΧΕΙΡΟΥΡΓΟΊ|ΝΕΦΡΟΛΌΓΟΙ|ΟΔΟΝΤΊΑΤΡΟΙ|ΟΡΘΟΠΕΔΙΚΟΊ|ΟΥΡΟΛΌΓΟΙ|ΟΦΘΑΛΜΊΑΤΡΟΙ|ΠΑΘΟΛΟΓΟΑΝΑΤΌΜΟΙ|ΠΑΘΟΛΌΓΟΙ|ΠΑΙΔΊΑΤΡΟΙ|ΠΑΙΔΟΨΥΧΊΑΤΡΟΙ|ΦΥΜΑΤΙΟΛΌΓΟΙ - ΠΝΕΥΜΟΝΟΛΌΓΟΙ|ΦΥΣΙΚΉΣ ΙΑΤΡΙΚΉΣ ΚΑΙ ΑΠΟΚΑΤΆΣΤΑΣΗΣ|ΧΕΙΡΟΥΡΓΟΊ ΓΕΝΙΚΉΣ ΧΕΙΡΟΥΡΓΙΚΉΣ|ΩΤΟΡΙΝΟΛΑΡΥΓΓΟΛΌΓΟΙ|ΕΝΤΑΤΙΚΟΛΌΓΟΙ|ΕΠΕΙΓΟΝΤΟΛΌΓΟΙ,2107494000,,https://401gsn.army.gr/,31/12/2023,22/04/2026,1,
EL_GR064,ΓΕΝIKO ΝΟΣΟΚOMEIO ΚΑΛΑΜΑΤΑΣ,,37.068015,22.0608,,,24100,ΚΑΛΑΜΑΤΑ,ΑΘΗΝΩΝ,EL,YES,,,,ΓΕΝΙΚΑ ΝΟΣΟΚΟΜΕΙΑ,PUBLIC,,2721046000,info@nosokomeiokalamatas.gr,https://www.nosokomeiokalamatas.gr/,31/12/2023,22/04/2026,1,
EL_GR018,Γ.Ν. ΜΕΛΙΣΣΙΩΝ ''ΑΜΑΛΙΑ ΦΛΕΜΙΝΓΚ'',,38.054457,23.8347,,,15127,ΜΕΛΙΣΣΙΑ,25ΗΣ ΜΑΡΤΙΟΥ 14,EL,YES,,,,ΓΕΝΙΚΑ ΝΟΣΟΚΟΜΕΙΑ,PUBLIC,ΑΚΤΙΝΟΔΙΑΓΝΩΣΤΈΣ (ΑΚΤΙΝ. - ΡΑΔ.)|ΑΝΑΙΣΘΗΣΙΟΛΌΓΟΙ|ΚΑΡΔΙΟΛΌΓΟΙ|ΜΑΙΕΥΤΉΡΕΣ - ΓΥΝΑΙΚΟΛΌΓΟΙ|ΜΙΚΡΟΒΙΟΛΌΓΟΙ|ΝΕΦΡΟΛΌΓΟΙ|ΟΔΟΝΤΊΑΤΡΟΙ|ΟΡΘΟΠΕΔΙΚΟΊ|ΟΥΡΟΛΌΓΟΙ|ΠΑΘΟΛΌΓΟΙ|ΠΑΙΔΊΑΤΡΟΙ|ΧΕΙΡΟΥΡΓΟΊ ΓΕΝΙΚΉΣ ΧΕΙΡΟΥΡΓΙΚΉΣ|ΨΥΧΊΑΤΡΟΙ|ΩΤΟΡΙΝΟΛΑΡΥΓΓΟΛΌΓΟΙ,2132003200,info@flemig-hospital.gr,http://www.flemig-hospital.gr/,31/12/2023,22/04/2026,1,
EL_GR019,Γ.Ν. ΝΙΚΑΙΑΣ-ΠΕΙΡΑΙΑ ΑΓ.ΠΑΝΤΕΛΕΗΜΩΝ,,37.971912,23.66198,,,18454,ΝΙΚΑΙΑ,Δ.ΜΑΝΤΟΥΒΑΛΟΥ 3,EL,YES,,,,ΓΕΝΙΚΑ ΝΟΣΟΚΟΜΕΙΑ,PUBLIC,ΑΚΤΙΝΟΔΙΑΓΝΩΣΤΈΣ (ΑΚΤΙΝ. - ΡΑΔ.)|ΑΝΑΙΣΘΗΣΙΟΛΌΓΟΙ|ΓΕΝΙΚΉΣ ΙΑΤΡΙΚΉΣ||ΜΑΙΕΥΤΉΡΕΣ - ΓΥΝΑΙΚΟΛΌΓΟΙ|ΟΡΘΟΠΕΔΙΚΟΊ|ΠΑΘΟΛΌΓΟΙ|ΠΑΙΔΊΑΤΡΟΙ|ΧΕΙΡΟΥΡΓΟΊ ΓΕΝΙΚΉΣ ΧΕΙΡΟΥΡΓΙΚΉΣ,2132077000,info@pammakaristos-hosp.gr,https://www.nikaia-hosp.gr/,31/12/2023,22/04/2026,1,
EL_GR020,Γ.Ν.ΠΕΙΡΑΙΑ ΤΖΑΝΕΙΟ,,37.934262,23.64555,,,18536,ΠΕΙΡΑΙΑΣ,ΖΑΝΝΗ-ΑΦΕΝΤΟΥΛΗ 1,EL,YES,,,,ΓΕΝΙΚΑ ΝΟΣΟΚΟΜΕΙΑ,PUBLIC,ΑΙΜΑΤΟΛΌΓΟΙ|ΑΚΤΙΝΟΔΙΑΓΝΩΣΤΈΣ (ΑΚΤΙΝ. - ΡΑΔ.)|ΑΝΑΙΣΘΗΣΙΟΛΌΓΟΙ|ΓΑΣΤΡΕΝΤΕΡΟΛΌΓΟΙ|ΓΕΝΙΚΉΣ ΙΑΤΡΙΚΉΣ|ΔΕΡΜΑΤΟΛΌΓΟΙ - ΑΦΡΟΔΙΣΙΟΛΌΓΟΙ|ΙΑΤΡΙΚΉΣ ΤΗΣ ΕΡΓΑΣΊΑΣ|ΚΑΡΔΙΟΛΌΓΟΙ|ΚΥΤΤΑΡΟΛΌΓΟΙ|ΜΑΙΕΥΤΉΡΕΣ - ΓΥΝΑΙΚΟΛΌΓΟΙ|ΜΙΚΡΟΒΙΟΛΌΓΟΙ|ΝΕΥΡΟΛΌΓΟΙ|ΝΕΥΡΟΧΕΙΡΟΥΡΓΟΊ|ΝΕΦΡΟΛΌΓΟΙ|ΟΡΘΟΠΕΔΙΚΟΊ|ΟΥΡΟΛΌΓΟΙ|ΟΦΘΑΛΜΊΑΤΡΟΙ|ΠΑΘΟΛΟΓΟΑΝΑΤΌΜΟΙ|ΠΑΘΟΛΌΓΟΙ|ΠΑΙΔΊΑΤΡΟΙ|ΠΑΙΔΟΨΥΧΊΑΤΡΟΙ|ΡΕΥΜΑΤΟΛΌΓΟΙ|ΦΥΜΑΤΙΟΛΌΓΟΙ - ΠΝΕΥΜΟΝΟΛΌΓΟΙ|ΦΥΣΙΚΉΣ ΙΑΤΡΙΚΉΣ ΚΑΙ ΑΠΟΚΑΤΆΣΤΑΣΗΣ|ΧΕΙΡΟΥΡΓΟΊ ΓΕΝΙΚΉΣ ΧΕΙΡΟΥΡΓΙΚΉΣ|ΧΕΙΡΟΥΡΓΟΊ ΘΏΡΑΚΑ|ΧΕΙΡΟΥΡΓΟΊ ΠΛΑΣΤΙΚΉΣ ΧΕΙΡΟΥΡΓΙΚΉΣ|ΨΥΧΊΑΤΡΟΙ|ΩΤΟΡΙΝΟΛΑΡΥΓΓΟΛΌΓΟΙ|ΑΓΓΕΙΟΧΕΙΡΟΥΡΓΟΊ|ΓΝΑΘΟΧΕΙΡΟΥΡΓΟΊ|ΕΝΤΑΤΙΚΟΛΌΓΟΙ|ΕΠΕΙΓΟΝΤΟΛΌΓΟΙ,2132081000,info@sismanoglio.gr,https://www.tzaneio.gr,31/12/2023,22/04/2026,1,
EL_GR021,ΑΝΤΙΚΑΡΚΙΝΙΚΟ - ΟΓΚΟΛΟΓΙΚΟ Ο ΑΓΙΟΣ ΣΑΒΒΑΣ,,37.987955,23.75553,,,11522,ΑΘΗΝΑ,Λ.ΑΛΕΞΑΝΔΡΑΣ 171,EL,YES,,,,ΑΝΤΙΚΑΡΚΙΝΙΚΑ,PUBLIC,ΑΙΜΑΤΟΛΌΓΟΙ|ΑΚΤΙΝΟΔΙΑΓΝΩΣΤΈΣ (ΑΚΤΙΝ. - ΡΑΔ.)|ΑΝΑΙΣΘΗΣΙΟΛΌΓΟΙ|ΓΕΝΙΚΉΣ ΙΑΤΡΙΚΉΣ|ΚΑΡΔΙΟΛΌΓΟΙ|ΜΑΙΕΥΤΉΡΕΣ - ΓΥΝΑΙΚΟΛΌΓΟΙ|ΜΙΚΡΟΒΙΟΛΌΓΟΙ|ΟΔΟΝΤΊΑΤΡΟΙ|ΟΡΘΟΠΕΔΙΚΟΊ|ΠΑΘΟΛΌΓΟΙ|ΠΑΙΔΊΑΤΡΟΙ|ΦΥΣΙΚΉΣ ΙΑΤΡΙΚΉΣ ΚΑΙ ΑΠΟΚΑΤΆΣΤΑΣΗΣ|ΧΕΙΡΟΥΡΓΟΊ ΓΕΝΙΚΉΣ ΧΕΙΡΟΥΡΓΙΚΉΣ|ΩΤΟΡΙΝΟΛΑΡΥΓΓΟΛΌΓΟΙ|ΕΠΕΙΓΟΝΤΟΛΌΓΟΙ,2106409000,info@agsavvas-hosp.gr,http://www.agsavvas-hosp.gr/,31/12/2023,22/04/2026,1,
EL_GR022,ΕΙΔΙΚΟ ΑΝΤΙΚΑΡΚΙΝΙΚΟ ΝΟΣΟΚΟΜΕΙΟ ΠΕΙΡΑΙΑ ΜΕΤΑΞΑ,,37.929652,23.64401,,,18537,ΠΕΙΡΑΙΑΣ,ΜΠΟΤΑΣΗ 51,EL,YES,,,,ΑΝΤΙΚΑΡΚΙΝΙΚΑ,PUBLIC,ΑΙΜΑΤΟΛΌΓΟΙ|ΑΚΤΙΝΟΔΙΑΓΝΩΣΤΈΣ (ΑΚΤΙΝ. - ΡΑΔ.)|ΑΝΑΙΣΘΗΣΙΟΛΌΓΟΙ|ΓΕΝΙΚΉΣ ΙΑΤΡΙΚΉΣ|ΔΕΡΜΑΤΟΛΌΓΟΙ - ΑΦΡΟΔΙΣΙΟΛΌΓΟΙ|ΚΑΡΔΙΟΛΌΓΟΙ|ΜΑΙΕΥΤΉΡΕΣ - ΓΥΝΑΙΚΟΛΌΓΟΙ|ΜΙΚΡΟΒΙΟΛΌΓΟΙ|ΝΕΥΡΟΛΌΓΟΙ|ΝΕΦΡΟΛΌΓΟΙ|ΟΡΘΟΠΕΔΙΚΟΊ|ΟΦΘΑΛΜΊΑΤΡΟΙ|ΠΑΘΟΛΌΓΟΙ|ΠΑΙΔΊΑΤΡΟΙ|ΦΥΜΑΤΙΟΛΌΓΟΙ - ΠΝΕΥΜΟΝΟΛΌΓΟΙ|ΧΕΙΡΟΥΡΓΟΊ ΓΕΝΙΚΉΣ ΧΕΙΡΟΥΡΓΙΚΉΣ|ΩΤΟΡΙΝΟΛΑΡΥΓΓΟΛΌΓΟΙ,2132079100,protokollo@metaxa-hospital.gov.gr,https://www.metaxa-hospital.gov.gr/,31/12/2023,22/04/2026,1,
EL_GR023,ΓΕΝΙΚΟ ΟΓΚΟΛΟΓΙΚΟ ΝΟΣΟΚΟΜΕΙΟ ΟΙ ΑΓΙΟΙ ΑΝΑΡΓΥΡΟΙ,,38.079815,23.7699,,,14564,ΝΕΑ ΚΗΦΙΣΙΑ,ΚΑΛΥΦΤΑΚΗ,EL,YES,,,,ΓΕΝΙΚΑ ΝΟΣΟΚΟΜΕΙΑ,PUBLIC,ΑΙΜΑΤΟΛΌΓΟΙ|ΑΚΤΙΝΟΔΙΑΓΝΩΣΤΈΣ (ΑΚΤΙΝ. - ΡΑΔ.)|ΑΝΑΙΣΘΗΣΙΟΛΌΓΟΙ|ΓΑΣΤΡΕΝΤΕΡΟΛΌΓΟΙ|ΓΕΝΙΚΉΣ ΙΑΤΡΙΚΉΣ|ΔΕΡΜΑΤΟΛΌΓΟΙ - ΑΦΡΟΔΙΣΙΟΛΌΓΟΙ|ΚΑΡΔΙΟΛΌΓΟΙ|ΚΥΤΤΑΡΟΛΌΓΟΙ|ΜΑΙΕΥΤΉΡΕΣ - ΓΥΝΑΙΚΟΛΌΓΟΙ|ΜΙΚΡΟΒΙΟΛΌΓΟΙ|ΝΕΥΡΟΛΌΓΟΙ|ΝΕΦΡΟΛΌΓΟΙ|ΟΡΘΟΠΕΔΙΚΟΊ|ΟΥΡΟΛΌΓΟΙ|ΟΦΘΑΛΜΊΑΤΡΟΙ|ΠΑΘΟΛΟΓΟΑΝΑΤΌΜΟΙ|ΠΑΘΟΛΌΓΟΙ|ΠΑΙΔΊΑΤΡΟΙ|ΦΥΜΑΤΙΟΛΌΓΟΙ - ΠΝΕΥΜΟΝΟΛΌΓΟΙ|ΦΥΣΙΚΉΣ ΙΑΤΡΙΚΉΣ ΚΑΙ ΑΠΟΚΑΤΆΣΤΑΣΗΣ|ΧΕΙΡΟΥΡΓΟΊ ΓΕΝΙΚΉΣ ΧΕΙΡΟΥΡΓΙΚΉΣ|ΨΥΧΊΑΤΡΟΙ|ΩΤΟΡΙΝΟΛΑΡΥΓΓΟΛΌΓΟΙ|ΑΓΓΕΙΟΧΕΙΡΟΥΡΓΟΊ|ΟΓΚΟΛΌΓΟΙ|ΕΝΤΑΤΙΚΟΛΌΓΟΙ|ΕΠΕΙΓΟΝΤΟΛΌΓΟΙ,2103501500,secretary@gonkhosp.gr,http://www.gonkhosp.gr/,31/12/2023,22/04/2026,1,
EL_GR024,ΑΦΡΟΔΙΣΙΩΝ & ΔΕΡΜΑΤΙΚΩΝ ΝΟΣΩΝ ΑΝΔΡΕΑΣ ΣΥΓΓΡΟΣ,,37.973927,23.75184,,,16121,ΑΘΗΝΑ,Ι.ΔΡΑΓΟΥΜΗ 5,EL,YES,,,,ΑΦΡΟΔΙΣΙΩΝ - ΔΕΡΜΑΤΙΚΑ,PUBLIC,ΑΝΑΙΣΘΗΣΙΟΛΌΓΟΙ|ΓΕΝΙΚΉΣ ΙΑΤΡΙΚΉΣ||ΜΑΙΕΥΤΉΡΕΣ - ΓΥΝΑΙΚΟΛΌΓΟΙ|ΜΙΚΡΟΒΙΟΛΌΓΟΙ|ΝΕΦΡΟΛΌΓΟΙ|ΟΔΟΝΤΊΑΤΡΟΙ|ΟΡΘΟΠΕΔΙΚΟΊ|ΟΦΘΑΛΜΊΑΤΡΟΙ|ΠΑΘΟΛΌΓΟΙ|ΠΑΙΔΊΑΤΡΟΙ|ΧΕΙΡΟΥΡΓΟΊ ΓΕΝΙΚΉΣ ΧΕΙΡΟΥΡΓΙΚΉΣ|ΩΤΟΡΙΝΟΛΑΡΥΓΓΟΛΌΓΟΙ,2107265100,epdlyy@syggros.gr,http://www.syggros-hosp.gr/,31/12/2023,22/04/2026,1,
EL_GR025,ΓΕΝΙΚΟ ΝΟΣΟΚΟΜΕΙΟ ΜΑΙΕΥΤΙΚΟ ΕΛΕΝΑ ΒΕΝΙΖΕΛΟΥ,,37.984818,23.7557,,,11476,ΑΘΗΝΑ,ΠΛ. ΕΛ. ΒΕΝΙΖΕΛΟΥ 2,EL,YES,,,,ΓΕΝΙΚΑ ΝΟΣΟΚΟΜΕΙΑ,PUBLIC,ΑΚΤΙΝΟΔΙΑΓΝΩΣΤΈΣ (ΑΚΤΙΝ. - ΡΑΔ.)|ΑΝΑΙΣΘΗΣΙΟΛΌΓΟΙ|ΓΕΝΙΚΉΣ ΙΑΤΡΙΚΉΣ||ΜΑΙΕΥΤΉΡΕΣ - ΓΥΝΑΙΚΟΛΌΓΟΙ|ΜΙΚΡΟΒΙΟΛΌΓΟΙ|ΝΕΦΡΟΛΌΓΟΙ|ΟΔΟΝΤΊΑΤΡΟΙ|ΟΡΘΟΠΕΔΙΚΟΊ|ΟΦΘΑΛΜΊΑΤΡΟΙ|ΠΑΘΟΛΌΓΟΙ|ΠΑΙΔΊΑΤΡΟΙ|ΧΕΙΡΟΥΡΓΟΊ ΓΕΝΙΚΉΣ ΧΕΙΡΟΥΡΓΙΚΉΣ|ΩΤΟΡΙΝΟΛΑΡΥΓΓΟΛΌΓΟΙ|ΕΝΤΑΤΙΚΟΛΌΓΟΙ,2132051000,secretariat-dept@hospital-elena.gr,http://www.hospital-elena.gr/,31/12/2023,22/04/2026,1,
EL_GR0163,ΝΕΥΡΟΨΥΧΙΑΤΡΙΚΗ ΚΛΙΝΙΚΗ ΚΑΣΤΑΛΙΑ,,37.880326,23.73266,,,16777,ΕΛΛΗΝΙΚΟ,ΗΤΑ 6,EL,NO,,,,ΝΕΥΡΟΨΥΧΙΑΤΡΙΚΑ,PRIVATE,ΨΥΧΊΑΤΡΟΙ,2108980633,info@kastaliakarditsa.gr,https://kastaliakarditsa.gr/,31/12/2023,22/04/2026,1,
EL_GR026,ΨΥΧΙΑΤΡΙΚΟ ΝΟΣΟΚΟΜΕΙΟ ΑΤΤΙΚΗΣ,,38.013537,23.64006,,,12462,ΧΑΙΔΑΡΙ,Λ.ΑΘΗΝΩΝ 374,EL,YES,,,,ΝΕΥΡΟΨΥΧΙΑΤΡΙΚΑ,PUBLIC,ΑΚΤΙΝΟΔΙΑΓΝΩΣΤΈΣ (ΑΚΤΙΝ. - ΡΑΔ.)|ΑΝΑΙΣΘΗΣΙΟΛΌΓΟΙ|ΓΕΝΙΚΉΣ ΙΑΤΡΙΚΉΣ|ΔΕΡΜΑΤΟΛΌΓΟΙ - ΑΦΡΟΔΙΣΙΟΛΌΓΟΙ|ΚΑΡΔΙΟΛΌΓΟΙ|ΜΑΙΕΥΤΉΡΕΣ - ΓΥΝΑΙΚΟΛΌΓΟΙ|ΜΙΚΡΟΒΙΟΛΌΓΟΙ|ΝΕΦΡΟΛΌΓΟΙ|ΟΔΟΝΤΊΑΤΡΟΙ|ΟΡΘΟΠΕΔΙΚΟΊ|ΟΦΘΑΛΜΊΑΤΡΟΙ|ΠΑΘΟΛΌΓΟΙ|ΠΑΙΔΊΑΤΡΟΙ|ΦΥΜΑΤΙΟΛΌΓΟΙ - ΠΝΕΥΜΟΝΟΛΌΓΟΙ|ΧΕΙΡΟΥΡΓΟΊ ΓΕΝΙΚΉΣ ΧΕΙΡΟΥΡΓΙΚΉΣ|ΨΥΧΊΑΤΡΟΙ|ΕΠΕΙΓΟΝΤΟΛΌΓΟΙ,2132054000,protokolo@psychat.gr,https://www.psyhat.gr/,31/12/2023,22/04/2026,1,
EL_GR027,ΑΙΓΙΝΗΤΕΙΟ ΝΟΣΟΚΟΜΕΙΟ,,37.979305,23.75379,,,11528,ΑΘΗΝΑ,ΒΑΣ.ΣΟΦΙΑΣ 72,EL,YES,,,,ΝΕΥΡΟΨΥΧΙΑΤΡΙΚΑ,PUBLIC,ΑΚΤΙΝΟΘΕΡΑΠΕΥΤΈΣ|ΑΚΤΙΝΟΔΙΑΓΝΩΣΤΈΣ (ΑΚΤΙΝ. - ΡΑΔ.)|ΑΝΑΙΣΘΗΣΙΟΛΌΓΟΙ|ΓΑΣΤΡΕΝΤΕΡΟΛΌΓΟΙ|ΔΕΡΜΑΤΟΛΌΓΟΙ - ΑΦΡΟΔΙΣΙΟΛΌΓΟΙ|ΚΑΡΔΙΟΛΌΓΟΙ|ΜΑΙΕΥΤΉΡΕΣ - ΓΥΝΑΙΚΟΛΌΓΟΙ|ΜΙΚΡΟΒΙΟΛΌΓΟΙ|ΝΕΥΡΟΛΌΓΟΙ|ΝΕΥΡΟΧΕΙΡΟΥΡΓΟΊ|ΝΕΦΡΟΛΌΓΟΙ|ΟΔΟΝΤΊΑΤΡΟΙ|ΟΡΘΟΠΕΔΙΚΟΊ|ΟΥΡΟΛΌΓΟΙ|ΟΦΘΑΛΜΊΑΤΡΟΙ|ΠΑΘΟΛΟΓΟΑΝΑΤΌΜΟΙ|ΠΑΘΟΛΌΓΟΙ|ΠΑΙΔΊΑΤΡΟΙ|ΦΥΜΑΤΙΟΛΌΓΟΙ - ΠΝΕΥΜΟΝΟΛΌΓΟΙ|ΧΕΙΡΟΥΡΓΟΊ ΓΕΝΙΚΉΣ ΧΕΙΡΟΥΡΓΙΚΉΣ|ΨΥΧΊΑΤΡΟΙ|ΩΤΟΡΙΝΟΛΑΡΥΓΓΟΛΌΓΟΙ|ΑΓΓΕΙΟΧΕΙΡΟΥΡΓΟΊ|ΟΓΚΟΛΌΓΟΙ|ΕΝΤΑΤΙΚΟΛΌΓΟΙ|ΕΠΕΙΓΟΝΤΟΛΌΓΟΙ,2107289400,epdlyy@syggros.gr,http://www.syggros-hosp.gr/,31/12/2023,22/04/2026,1,
EL_GR028,ΔΡΟΜΟΚΑΪΤΕΙΟ Ψ.Ν.ΑΘΗΝΩΝ,,38.000002,23.66066,,,12461,ΧΑΙΔΑΡΙ,ΙΕΡΑ ΟΔΟΣ 343,EL,YES,,,,ΝΕΥΡΟΨΥΧΙΑΤΡΙΚΑ,PUBLIC,ΑΚΤΙΝΟΔΙΑΓΝΩΣΤΈΣ (ΑΚΤΙΝ. - ΡΑΔ.)|ΑΝΑΙΣΘΗΣΙΟΛΌΓΟΙ|ΓΕΝΙΚΉΣ ΙΑΤΡΙΚΉΣ|ΚΑΡΔΙΟΛΌΓΟΙΜΑΙΕΥΤΉΡΕΣ - ΓΥΝΑΙΚΟΛΌΓΟΙ|ΜΙΚΡΟΒΙΟΛΌΓΟΙ|ΝΕΦΡΟΛΌΓΟΙ|ΟΔΟΝΤΊΑΤΡΟΙ|ΟΡΘΟΠΕΔΙΚΟΊ|ΟΥΡΟΛΌΓΟΙ|ΟΦΘΑΛΜΊΑΤΡΟΙ|ΠΑΘΟΛΌΓΟΙ|ΠΑΙΔΊΑΤΡΟΙ|ΦΥΜΑΤΙΟΛΌΓΟΙ - ΠΝΕΥΜΟΝΟΛΌΓΟΙ|ΦΥΣΙΚΉΣ ΙΑΤΡΙΚΉΣ ΚΑΙ ΑΠΟΚΑΤΆΣΤΑΣΗΣ|ΧΕΙΡΟΥΡΓΟΊ ΓΕΝΙΚΉΣ ΧΕΙΡΟΥΡΓΙΚΉΣ|ΩΤΟΡΙΝΟΛΑΡΥΓΓΟΛΌΓΟΙ,2132046000,dromokat@otenet.gr,https://www.dromokaiteio.gr/,31/12/2023,22/04/2026,1,
EL_GR029,Π.Γ.Ν.Α ΚΑΤ,,38.065867,23.80818,,,14561,ΚΗΦΙΣΙΑ,ΝΙΚΗΣ 2,EL,YES,,,,ΓΕΝΙΚΑ ΝΟΣΟΚΟΜΕΙΑ,PUBLIC,ΑΙΜΑΤΟΛΌΓΟΙ|ΑΚΤΙΝΟΔΙΑΓΝΩΣΤΈΣ (ΑΚΤΙΝ. - ΡΑΔ.)|ΑΝΑΙΣΘΗΣΙΟΛΌΓΟΙ|ΓΕΝΙΚΉΣ ΙΑΤΡΙΚΉΣ|ΕΝΔΟΚΡΙΝΟΛΌΓΟΙ|ΙΑΤΡΙΚΉΣ ΤΗΣ ΕΡΓΑΣΊΑΣ|ΚΑΡΔΙΟΛΌΓΟΙ|ΜΑΙΕΥΤΉΡΕΣ - ΓΥΝΑΙΚΟΛΌΓΟΙ|ΜΙΚΡΟΒΙΟΛΌΓΟΙ|ΝΕΦΡΟΛΌΓΟΙ|ΟΡΘΟΠΕΔΙΚΟΊ|ΟΥΡΟΛΌΓΟΙ|ΠΑΘΟΛΟΓΟΑΝΑΤΌΜΟΙ|ΠΑΘΟΛΌΓΟΙ|ΠΑΙΔΊΑΤΡΟΙ|ΧΕΙΡΟΥΡΓΟΊ ΓΕΝΙΚΉΣ ΧΕΙΡΟΥΡΓΙΚΉΣ|ΨΥΧΊΑΤΡΟΙ|ΕΠΕΙΓΟΝΤΟΛΌΓΟΙ,2132086000,infokat@kat-hosp.gr,http://www.kat-hosp.gr/,31/12/2023,22/04/2026,1,
EL_GR030,ΟΦΘΑΛΜΙΑΤΡΕΙΟ ΑΘΗΝΩΝ,,37.979355,23.73433,,,10672,ΑΘΗΝΑ,ΕΛ. ΒΕΝΙΖΕΛΟΥ (ΠΑΝΕΠΙΣΤΗΜΙΟΥ) 26,EL,YES,,,,ΟΦΘΑΛΜΟΛΟΓΙΚΑ,PUBLIC,ΑΚΤΙΝΟΔΙΑΓΝΩΣΤΈΣ (ΑΚΤΙΝ. - ΡΑΔ.)|ΑΝΑΙΣΘΗΣΙΟΛΌΓΟΙ|ΓΑΣΤΡΕΝΤΕΡΟΛΌΓΟΙ|ΔΕΡΜΑΤΟΛΌΓΟΙ - ΑΦΡΟΔΙΣΙΟΛΌΓΟΙ|ΚΑΡΔΙΟΛΌΓΟΙΜΑΙΕΥΤΉΡΕΣ - ΓΥΝΑΙΚΟΛΌΓΟΙ|ΜΙΚΡΟΒΙΟΛΌΓΟΙ|ΟΡΘΟΠΕΔΙΚΟΊ|ΟΦΘΑΛΜΊΑΤΡΟΙ|ΠΑΘΟΛΌΓΟΙ|ΠΑΙΔΊΑΤΡΟΙ|ΠΑΙΔΟΨΥΧΊΑΤΡΟΙ|ΦΥΜΑΤΙΟΛΌΓΟΙ - ΠΝΕΥΜΟΝΟΛΌΓΟΙ|ΧΕΙΡΟΥΡΓΟΊ ΓΕΝΙΚΉΣ ΧΕΙΡΟΥΡΓΙΚΉΣ|ΩΤΟΡΙΝΟΛΑΡΥΓΓΟΛΌΓΟΙ,2103613334,gramm@ophthalmiatreio.gr,http://www.ophthalmiatreio.gr/,31/12/2023,22/04/2026,1,
EL_GR031,ΣΠΗΛΙΟΠΟΥΛΕΙΟ ΑΓΙΑ ΕΛΕΝΗ,,37.984173,23.75647,,,11521,ΑΘΗΝΑ,ΔΗΜ.ΣΟΥΤΣΟΥ 21,EL,NO,,,,ΠΑΘΟΛΟΓΙΚΑ,PUBLIC,ΑΙΜΑΤΟΛΌΓΟΙ|ΑΚΤΙΝΟΔΙΑΓΝΩΣΤΈΣ (ΑΚΤΙΝ. - ΡΑΔ.)|ΑΝΑΙΣΘΗΣΙΟΛΌΓΟΙ|ΓΑΣΤΡΕΝΤΕΡΟΛΌΓΟΙ|ΓΕΝΙΚΉΣ ΙΑΤΡΙΚΉΣ|ΔΕΡΜΑΤΟΛΌΓΟΙ - ΑΦΡΟΔΙΣΙΟΛΌΓΟΙ|ΕΝΔΟΚΡΙΝΟΛΌΓΟΙ|ΚΑΡΔΙΟΛΌΓΟΙ|ΚΥΤΤΑΡΟΛΌΓΟΙ|ΜΑΙΕΥΤΉΡΕΣ - ΓΥΝΑΙΚΟΛΌΓΟΙ|ΜΙΚΡΟΒΙΟΛΌΓΟΙ|ΝΕΥΡΟΛΌΓΟΙ|ΝΕΥΡΟΧΕΙΡΟΥΡΓΟΊ|ΝΕΦΡΟΛΌΓΟΙ|ΟΔΟΝΤΊΑΤΡΟΙ|ΟΡΘΟΠΕΔΙΚΟΊ|ΟΥΡΟΛΌΓΟΙ|ΟΦΘΑΛΜΊΑΤΡΟΙ|ΠΑΘΟΛΟΓΟΑΝΑΤΌΜΟΙ|ΠΑΘΟΛΌΓΟΙ|ΠΑΙΔΊΑΤΡΟΙ|ΦΥΜΑΤΙΟΛΌΓΟΙ - ΠΝΕΥΜΟΝΟΛΌΓΟΙ|ΧΕΙΡΟΥΡΓΟΊ ΓΕΝΙΚΉΣ ΧΕΙΡΟΥΡΓΙΚΉΣ|ΨΥΧΊΑΤΡΟΙ|ΩΤΟΡΙΝΟΛΑΡΥΓΓΟΛΌΓΟΙ|ΓΝΑΘΟΧΕΙΡΟΥΡΓΟΊ|ΟΓΚΟΛΌΓΟΙ|ΕΝΤΑΤΙΚΟΛΌΓΟΙ|ΕΠΕΙΓΟΝΤΟΛΌΓΟΙ,2132023400,g.eggrafwn@spiliopoulio.gov.gr,http://www.spiliopoulio.gr/,31/12/2023,22/04/2026,1,
EL_GR032,ΓΕΝΙΚΟ ΝΟΣΟΚΟΜΕΙΟ ΠΑΙΔΩΝ ΑΘΗΝΩΝ Π.& Α.ΚΥΡΙΑΚΟΥ,,37.985294,23.76792,,,11527,ΑΘΗΝΑ,ΘΗΒΩΝ & ΛΕΙΒΑΔΕΙΑΣ,EL,YES,,,,ΠΑΙΔΙΑΤΡΙΚΑ,PUBLIC,ΑΙΜΑΤΟΛΌΓΟΙ|ΑΚΤΙΝΟΘΕΡΑΠΕΥΤΈΣ|ΑΚΤΙΝΟΔΙΑΓΝΩΣΤΈΣ (ΑΚΤΙΝ. - ΡΑΔ.)|ΑΝΑΙΣΘΗΣΙΟΛΌΓΟΙ|ΓΑΣΤΡΕΝΤΕΡΟΛΌΓΟΙ|ΓΕΝΙΚΉΣ ΙΑΤΡΙΚΉΣ|ΔΕΡΜΑΤΟΛΌΓΟΙ - ΑΦΡΟΔΙΣΙΟΛΌΓΟΙ|ΕΝΔΟΚΡΙΝΟΛΌΓΟΙ|ΚΑΡΔΙΟΛΌΓΟΙ|ΚΥΤΤΑΡΟΛΌΓΟΙ|ΜΑΙΕΥΤΉΡΕΣ - ΓΥΝΑΙΚΟΛΌΓΟΙ|ΜΙΚΡΟΒΙΟΛΌΓΟΙ|ΝΕΥΡΟΛΌΓΟΙ|ΝΕΥΡΟΧΕΙΡΟΥΡΓΟΊ|ΝΕΦΡΟΛΌΓΟΙ|ΟΔΟΝΤΊΑΤΡΟΙ|ΟΡΘΟΠΕΔΙΚΟΊ|ΟΥΡΟΛΌΓΟΙ|ΟΦΘΑΛΜΊΑΤΡΟΙ|ΠΑΘΟΛΟΓΟΑΝΑΤΌΜΟΙ|ΠΑΘΟΛΌΓΟΙ|ΠΑΙΔΊΑΤΡΟΙ|ΠΥΡΗΝΙΚΉΣ ΙΑΤΡΙΚΉΣ|ΡΕΥΜΑΤΟΛΌΓΟΙ|ΦΥΜΑΤΙΟΛΌΓΟΙ - ΠΝΕΥΜΟΝΟΛΌΓΟΙ|ΧΕΙΡΟΥΡΓΟΊ ΓΕΝΙΚΉΣ ΧΕΙΡΟΥΡΓΙΚΉΣ|ΧΕΙΡΟΥΡΓΟΊ ΠΛΑΣΤΙΚΉΣ ΧΕΙΡΟΥΡΓΙΚΉΣ|ΩΤΟΡΙΝΟΛΑΡΥΓΓΟΛΌΓΟΙ|ΑΓΓΕΙΟΧΕΙΡΟΥΡΓΟΊ|ΟΓΚΟΛΌΓΟΙ|ΕΝΤΑΤΙΚΟΛΌΓΟΙ|ΕΠΕΙΓΟΝΤΟΛΌΓΟΙ,2132009000,info@aglaiakyriakou.gr,http://www.aglaiakyriakou.gr/,31/12/2023,22/04/2026,1,
EL_GR094,Γ.Ν. ΠΑΠΑΓΕΩΡΓΙΟΥ,,40.675663,22.96216,,,56403,ΝΕΑ ΕΥΚΑΡΠΙΑ,ΠΕΡΙΦΕΡΕΙΑΚΗ ΟΔΟΣ ΘΕΣΣΑΛΟΝΙΚΗΣ,EL,YES,,,,ΓΕΝΙΚΑ ΝΟΣΟΚΟΜΕΙΑ,PUBLIC,ΑΚΤΙΝΟΔΙΑΓΝΩΣΤΈΣ (ΑΚΤΙΝ. - ΡΑΔ.)|ΑΝΑΙΣΘΗΣΙΟΛΌΓΟΙ|ΓΕΝΙΚΉΣ ΙΑΤΡΙΚΉΣ||ΜΑΙΕΥΤΉΡΕΣ - ΓΥΝΑΙΚΟΛΌΓΟΙ|ΜΙΚΡΟΒΙΟΛΌΓΟΙ|ΟΡΘΟΠΕΔΙΚΟΊ|ΠΑΘΟΛΌΓΟΙ|ΧΕΙΡΟΥΡΓΟΊ ΓΕΝΙΚΉΣ ΧΕΙΡΟΥΡΓΙΚΉΣ,2313323000,info@papageorgiou-hospital.gr,http://www.papageorgiou-hospital.gr/,31/12/2023,22/04/2026,1,
EL_GR033,ΝΟΣΟΚΟΜΕΙΟ ΠΑΙΔΩΝ Η ΑΓΙΑ ΣΟΦΙΑ,,37.984699,23.76864,,,11527,ΖΩΓΡΑΦΟΥ,ΘΗΒΩΝ &ΜΙΚΡ.ΑΣΙΑΣ,EL,YES,,,,ΠΑΙΔΙΑΤΡΙΚΑ,PUBLIC,ΑΙΜΑΤΟΛΌΓΟΙ|ΑΚΤΙΝΟΔΙΑΓΝΩΣΤΈΣ (ΑΚΤΙΝ. - ΡΑΔ.)|ΑΝΑΙΣΘΗΣΙΟΛΌΓΟΙ|ΜΙΚΡΟΒΙΟΛΌΓΟΙ|ΝΕΥΡΟΛΌΓΟΙ|ΟΡΘΟΠΕΔΙΚΟΊ|ΟΦΘΑΛΜΊΑΤΡΟΙ|ΠΑΙΔΊΑΤΡΟΙ|ΠΑΙΔΟΨΥΧΊΑΤΡΟΙ|ΧΕΙΡΟΥΡΓΟΊ ΓΕΝΙΚΉΣ ΧΕΙΡΟΥΡΓΙΚΉΣ|ΧΕΙΡΟΥΡΓΟΊ ΠΑΊΔΩΝ|ΩΤΟΡΙΝΟΛΑΡΥΓΓΟΛΌΓΟΙ,2132013000,info@paidon-agiasofia.gr,http://www.paidon-agiasofia.gr/,31/12/2023,22/04/2026,1,
EL_GR034,ΝΟΣΟΚ. ΝΟΣΗΜΑΤΩΝ ΘΩΡΑΚΟΣ ΑΘΗΝΩΝ Η ΣΩΤΗΡΙΑ,,37.994911,23.7792,,,15669,ΑΘΗΝΑ,ΜΕΣΟΓΕΙΩΝ 152,EL,YES,,,,ΓΕΝΙΚΑ ΝΟΣΟΚΟΜΕΙΑ,PUBLIC,ΑΚΤΙΝΟΔΙΑΓΝΩΣΤΈΣ (ΑΚΤΙΝ. - ΡΑΔ.)|ΑΝΑΙΣΘΗΣΙΟΛΌΓΟΙ||ΜΑΙΕΥΤΉΡΕΣ - ΓΥΝΑΙΚΟΛΌΓΟΙ|ΜΙΚΡΟΒΙΟΛΌΓΟΙ|ΝΕΥΡΟΛΌΓΟΙ|ΟΔΟΝΤΊΑΤΡΟΙ|ΟΡΘΟΠΕΔΙΚΟΊ|ΟΥΡΟΛΌΓΟΙ|ΟΦΘΑΛΜΊΑΤΡΟΙ|ΠΑΘΟΛΟΓΟΑΝΑΤΌΜΟΙ|ΠΑΘΟΛΌΓΟΙ|ΠΑΙΔΊΑΤΡΟΙ|ΧΕΙΡΟΥΡΓΟΊ ΓΕΝΙΚΉΣ ΧΕΙΡΟΥΡΓΙΚΉΣ|ΨΥΧΊΑΤΡΟΙ,2107763100,politis@sotiria.gr,http://www.sotiria.gr/,31/12/2023,22/04/2026,1,
EL_GR035,ΠΑΝ/ΚΟ ΓΕΝΙΚΟ ΝΟΣOKOMEIO ΑΤΤΙΚΟΝ,,38.016812,23.66564,,,12462,ΧΑΙΔΑΡΙ,ΡΙΜΙΝΙ 1,EL,YES,,,,ΓΕΝΙΚΑ ΝΟΣΟΚΟΜΕΙΑ,PUBLIC,ΑΚΤΙΝΟΔΙΑΓΝΩΣΤΈΣ (ΑΚΤΙΝ. - ΡΑΔ.)|ΓΕΝΙΚΉΣ ΙΑΤΡΙΚΉΣ|ΚΑΡΔΙΟΛΌΓΟΙ|ΜΙΚΡΟΒΙΟΛΌΓΟΙ|ΟΔΟΝΤΊΑΤΡΟΙ|ΟΡΘΟΠΕΔΙΚΟΊ|ΠΑΘΟΛΌΓΟΙ|ΠΑΙΔΊΑΤΡΟΙ,2105831000,politis@attikonhospital.gr,https://attikonhospital.gov.gr/,31/12/2023,22/04/2026,1,
EL_GR036,ΕΘΝΙΚΟ ΚΕΝΤΡΟ ΑΠΟΚΑΤΑΣΤΑΣΗΣ,,38.048823,23.71782,,,13122,ΙΛΙΟΝ,ΣΠΥΡΟΥ ΘΕΟΛΟΓΟΥ 1 & Λ. ΦΥΛΗΣ,EL,NO,,,,ΚΕΝΤΡΑ ΑΠΟΚΑΤΑΣΤΑΣΗΣ,PUBLIC,ΑΙΜΑΤΟΛΌΓΟΙ|ΑΚΤΙΝΟΘΕΡΑΠΕΥΤΈΣ|ΑΚΤΙΝΟΔΙΑΓΝΩΣΤΈΣ (ΑΚΤΙΝ. - ΡΑΔ.)|ΑΝΑΙΣΘΗΣΙΟΛΌΓΟΙ|ΓΑΣΤΡΕΝΤΕΡΟΛΌΓΟΙ|ΓΕΝΙΚΉΣ ΙΑΤΡΙΚΉΣ|ΔΕΡΜΑΤΟΛΌΓΟΙ - ΑΦΡΟΔΙΣΙΟΛΌΓΟΙ|ΕΝΔΟΚΡΙΝΟΛΌΓΟΙ|ΚΑΡΔΙΟΛΌΓΟΙ|ΚΥΤΤΑΡΟΛΌΓΟΙ|ΜΑΙΕΥΤΉΡΕΣ - ΓΥΝΑΙΚΟΛΌΓΟΙ|ΜΙΚΡΟΒΙΟΛΌΓΟΙ|ΝΕΥΡΟΛΌΓΟΙ|ΝΕΥΡΟΧΕΙΡΟΥΡΓΟΊ|ΝΕΦΡΟΛΌΓΟΙ|ΟΔΟΝΤΊΑΤΡΟΙ|ΟΡΘΟΠΕΔΙΚΟΊ|ΟΥΡΟΛΌΓΟΙ|ΟΦΘΑΛΜΊΑΤΡΟΙ|ΠΑΘΟΛΟΓΟΑΝΑΤΌΜΟΙ|ΠΑΘΟΛΌΓΟΙ|ΠΑΙΔΊΑΤΡΟΙ|ΠΑΙΔΟΨΥΧΊΑΤΡΟΙ|ΠΥΡΗΝΙΚΉΣ ΙΑΤΡΙΚΉΣ|ΡΕΥΜΑΤΟΛΌΓΟΙ|ΦΥΜΑΤΙΟΛΌΓΟΙ - ΠΝΕΥΜΟΝΟΛΌΓΟΙ|ΦΥΣΙΚΉΣ ΙΑΤΡΙΚΉΣ ΚΑΙ ΑΠΟΚΑΤΆΣΤΑΣΗΣ|ΧΕΙΡΟΥΡΓΟΊ ΓΕΝΙΚΉΣ ΧΕΙΡΟΥΡΓΙΚΉΣ|ΧΕΙΡΟΥΡΓΟΊ ΘΏΡΑΚΑ|ΧΕΙΡΟΥΡΓΟΊ ΠΑΊΔΩΝ|ΧΕΙΡΟΥΡΓΟΊ ΠΛΑΣΤΙΚΉΣ ΧΕΙΡΟΥΡΓΙΚΉΣ|ΨΥΧΊΑΤΡΟΙ|ΩΤΟΡΙΝΟΛΑΡΥΓΓΟΛΌΓΟΙ|ΑΓΓΕΙΟΧΕΙΡΟΥΡΓΟΊ|ΓΝΑΘΟΧΕΙΡΟΥΡΓΟΊ|ΟΓΚΟΛΌΓΟΙ|ΕΝΤΑΤΙΚΟΛΌΓΟΙ,2132015109,https://eka-hosp.gr/contact-us/,http://www.eka-hosp.gr/,31/12/2023,22/04/2026,1,
EL_GR037,ΓΕΝΙΚΟ ΝΟΣΟΚΟΜΕΙΟ ΑΓΡΙΝΙΟΥ,,38.589709,21.41653,,,30100,ΑΓΡΙΝΙΟ,ΚΟΚΚΑΛΗ ΤΕΡΜΑ,EL,YES,,,,ΓΕΝΙΚΑ ΝΟΣΟΚΟΜΕΙΑ,PUBLIC,ΑΚΤΙΝΟΔΙΑΓΝΩΣΤΈΣ (ΑΚΤΙΝ. - ΡΑΔ.)|ΑΝΑΙΣΘΗΣΙΟΛΌΓΟΙ|ΓΕΝΙΚΉΣ ΙΑΤΡΙΚΉΣ|ΚΑΡΔΙΟΛΌΓΟΙ|ΜΙΚΡΟΒΙΟΛΌΓΟΙ|ΟΔΟΝΤΊΑΤΡΟΙ|ΟΡΘΟΠΕΔΙΚΟΊ|ΠΑΙΔΊΑΤΡΟΙ|ΦΥΜΑΤΙΟΛΌΓΟΙ - ΠΝΕΥΜΟΝΟΛΌΓΟΙ|ΧΕΙΡΟΥΡΓΟΊ ΓΕΝΙΚΉΣ ΧΕΙΡΟΥΡΓΙΚΉΣ,"2641361130, 2641361135",dioikitis@hospital-agrinio.gr,https://hospital-agrinio.gr/,31/12/2023,22/04/2026,1,
EL_GR038,Γ. Ν. ΜΕΣΟΛΟΓΓΙΟΥ ΧΑΤΖΗΚΩΣΤΑ,,38.374342,21.44058,,,30200,ΜΕΣΟΛΟΓΓΙ,ΝΑΥΠΑΚΤΟΥ 2,EL,YES,,,,ΓΕΝΙΚΑ ΝΟΣΟΚΟΜΕΙΑ,PUBLIC,ΓΕΝΙΚΉΣ ΙΑΤΡΙΚΉΣ,2631360100,nosokomeio-mesolongiou@1703.syzefxis.gov.gr,https://hospital-mesolongi.gr/,31/12/2023,22/04/2026,1,
EL_GR039,ΓΕΝΙΚΟ ΝΟΣΟΚΟΜΕΙΟ Κ.Υ.ΚΥΘΗΡΩΝ ΤΡΙΦΥΛΛΕΙΟ,,36.277122,22.96502,,,80200,ΚΥΘΗΡΑ,ΠΟΤΑΜΟΣ ΚΥΘΗΡΩΝ,EL,YES,,,,ΓΕΝΙΚΑ ΝΟΣΟΚΟΜΕΙΑ,PUBLIC,ΑΙΜΑΤΟΛΌΓΟΙ|ΑΚΤΙΝΟΔΙΑΓΝΩΣΤΈΣ (ΑΚΤΙΝ. - ΡΑΔ.)|ΑΝΑΙΣΘΗΣΙΟΛΌΓΟΙ|ΓΑΣΤΡΕΝΤΕΡΟΛΌΓΟΙ|ΓΕΝΙΚΉΣ ΙΑΤΡΙΚΉΣ||ΜΑΙΕΥΤΉΡΕΣ - ΓΥΝΑΙΚΟΛΌΓΟΙ|ΜΙΚΡΟΒΙΟΛΌΓΟΙ|ΝΕΥΡΟΛΌΓΟΙ|ΝΕΥΡΟΧΕΙΡΟΥΡΓΟΊ|ΝΕΦΡΟΛΌΓΟΙ|ΟΡΘΟΠΕΔΙΚΟΊ|ΟΥΡΟΛΌΓΟΙ|ΟΦΘΑΛΜΊΑΤΡΟΙ|ΠΑΘΟΛΌΓΟΙ|ΠΑΙΔΊΑΤΡΟΙ.ΡΕΥΜΑΤΟΛΌΓΟΙ|ΦΥΜΑΤΙΟΛΌΓΟΙ - ΠΝΕΥΜΟΝΟΛΌΓΟΙ|ΧΕΙΡΟΥΡΓΟΊ ΓΕΝΙΚΉΣ ΧΕΙΡΟΥΡΓΙΚΉΣ|ΨΥΧΊΑΤΡΟΙ|ΩΤΟΡΙΝΟΛΑΡΥΓΓΟΛΌΓΟΙ|ΕΝΤΑΤΙΚΟΛΌΓΟΙ|ΕΠΕΙΓΟΝΤΟΛΌΓΟΙ,2736033203,noskithi@otenet.gr,https://www.gnk.gov.gr/,31/12/2023,22/04/2026,1,
EL_GR040,ΝΟΣΟΚ.ΑΙΓΙΝΗΣ ΑΓΙΟΣ ΔΙΟΝΥΣΙΟΣ,,37.747245,23.43209,,,18010,ΑΙΓΙΝΑ,ΝΟΣΟΚΟΜΕΙΟΥ 10,EL,NO,,,,ΠΑΘΟΛΟΓΙΚΑ,PUBLIC,ΑΙΜΑΤΟΛΌΓΟΙ|ΑΚΤΙΝΟΔΙΑΓΝΩΣΤΈΣ (ΑΚΤΙΝ. - ΡΑΔ.)|ΑΝΑΙΣΘΗΣΙΟΛΌΓΟΙ|ΓΑΣΤΡΕΝΤΕΡΟΛΌΓΟΙ|ΓΕΝΙΚΉΣ ΙΑΤΡΙΚΉΣ|ΔΕΡΜΑΤΟΛΌΓΟΙ - ΑΦΡΟΔΙΣΙΟΛΌΓΟΙ|ΚΑΡΔΙΟΛΌΓΟΙ|ΚΥΤΤΑΡΟΛΌΓΟΙ|ΜΑΙΕΥΤΉΡΕΣ - ΓΥΝΑΙΚΟΛΌΓΟΙ|ΜΙΚΡΟΒΙΟΛΌΓΟΙ|ΝΕΦΡΟΛΌΓΟΙ|ΟΔΟΝΤΊΑΤΡΟΙ|ΟΡΘΟΠΕΔΙΚΟΊ|ΟΥΡΟΛΌΓΟΙ|ΟΦΘΑΛΜΊΑΤΡΟΙ|ΠΑΘΟΛΟΓΟΑΝΑΤΌΜΟΙ|ΠΑΘΟΛΌΓΟΙ|ΠΑΙΔΊΑΤΡΟΙ|ΠΑΙΔΟΨΥΧΊΑΤΡΟΙ|ΦΥΣΙΚΉΣ ΙΑΤΡΙΚΉΣ ΚΑΙ ΑΠΟΚΑΤΆΣΤΑΣΗΣ|ΧΕΙΡΟΥΡΓΟΊ ΓΕΝΙΚΉΣ ΧΕΙΡΟΥΡΓΙΚΉΣ|ΨΥΧΊΑΤΡΟΙ|ΕΝΤΑΤΙΚΟΛΌΓΟΙ|ΕΠΕΙΓΟΝΤΟΛΌΓΟΙ,2297024489,info@aeginahospital.gr,https://aeginahospital.gr/,31/12/2023,22/04/2026,1,
EL_GR041,ΓΕΝΙΚΟ ΝΟΣΟΚΟΜΕΙΟ ΕΛΕΥΣΙΝΑΣ ΘΡΙΑΣΙΟ,,38.071821,23.5323,,,19200,ΜΑΓΟΥΛΑ,ΛΕΩΦ.Γ.ΓΕΝΝΗΜΑΤΑ,EL,YES,,,,ΓΕΝΙΚΑ ΝΟΣΟΚΟΜΕΙΑ,PUBLIC,ΑΙΜΑΤΟΛΌΓΟΙ|ΑΚΤΙΝΟΔΙΑΓΝΩΣΤΈΣ (ΑΚΤΙΝ. - ΡΑΔ.)|ΑΝΑΙΣΘΗΣΙΟΛΌΓΟΙ|ΓΑΣΤΡΕΝΤΕΡΟΛΌΓΟΙ|ΓΕΝΙΚΉΣ ΙΑΤΡΙΚΉΣ|ΙΑΤΡΟΔΙΚΑΣΤΈΣ|ΜΑΙΕΥΤΉΡΕΣ - ΓΥΝΑΙΚΟΛΌΓΟΙ|ΜΙΚΡΟΒΙΟΛΌΓΟΙ|ΝΕΦΡΟΛΌΓΟΙ|ΟΔΟΝΤΊΑΤΡΟΙ|ΟΡΘΟΠΕΔΙΚΟΊ|ΟΥΡΟΛΌΓΟΙ|ΟΦΘΑΛΜΊΑΤΡΟΙ|ΠΑΘΟΛΌΓΟΙ|ΠΑΙΔΊΑΤΡΟΙ|ΦΥΜΑΤΙΟΛΌΓΟΙ - ΠΝΕΥΜΟΝΟΛΌΓΟΙ|ΧΕΙΡΟΥΡΓΟΊ ΓΕΝΙΚΉΣ ΧΕΙΡΟΥΡΓΙΚΉΣ|ΩΤΟΡΙΝΟΛΑΡΥΓΓΟΛΌΓΟΙ|ΕΝΤΑΤΙΚΟΛΌΓΟΙ|ΕΠΕΙΓΟΝΤΟΛΌΓΟΙ,2132028000,info@thriassio-hosp.gr,https://thriassio-hosp.gr/,31/12/2023,22/04/2026,1,
EL_GR042,ΓΕΝΙΚΟ ΝΟΣΟΚΟΜΕΙΟ ΘΗΒΩΝ,,38.332314,23.35496,,,32200,ΘΗΒΑ,Ε.ΤΣΕΒΑ 1,EL,YES,,,,ΓΕΝΙΚΑ ΝΟΣΟΚΟΜΕΙΑ,PUBLIC,ΑΙΜΑΤΟΛΌΓΟΙ|ΑΚΤΙΝΟΔΙΑΓΝΩΣΤΈΣ (ΑΚΤΙΝ. - ΡΑΔ.)|ΑΝΑΙΣΘΗΣΙΟΛΌΓΟΙ|ΓΕΝΙΚΉΣ ΙΑΤΡΙΚΉΣ||ΜΑΙΕΥΤΉΡΕΣ - ΓΥΝΑΙΚΟΛΌΓΟΙ|ΜΙΚΡΟΒΙΟΛΌΓΟΙ|ΝΕΦΡΟΛΌΓΟΙ|ΟΔΟΝΤΊΑΤΡΟΙ|ΟΡΘΟΠΕΔΙΚΟΊ|ΟΦΘΑΛΜΊΑΤΡΟΙ|ΠΑΘΟΛΌΓΟΙ|ΠΑΙΔΊΑΤΡΟΙ|ΧΕΙΡΟΥΡΓΟΊ ΓΕΝΙΚΉΣ ΧΕΙΡΟΥΡΓΙΚΉΣ|ΩΤΟΡΙΝΟΛΑΡΥΓΓΟΛΌΓΟΙ,2262350100,info@thebeshospital.eu,https://thebeshospital.eu/,31/12/2023,22/04/2026,1,
EL_GR043,ΓΕΝΙΚΟ ΝΟΣΟΚΟΜΕΙΟ ΛΙΒΑΔΕΙΑΣ,,38.446276,22.88307,,,32100,ΛΙΒΑΔΕΙΑ,T.ΑΓΙΟΥ ΒΛΑΣΣΙΟΥ,EL,YES,,,,ΓΕΝΙΚΑ ΝΟΣΟΚΟΜΕΙΑ,PUBLIC,ΑΙΜΑΤΟΛΌΓΟΙ|ΑΚΤΙΝΟΔΙΑΓΝΩΣΤΈΣ (ΑΚΤΙΝ. - ΡΑΔ.)|ΑΝΑΙΣΘΗΣΙΟΛΌΓΟΙ|ΓΑΣΤΡΕΝΤΕΡΟΛΌΓΟΙ|ΓΕΝΙΚΉΣ ΙΑΤΡΙΚΉΣ|ΔΕΡΜΑΤΟΛΌΓΟΙ - ΑΦΡΟΔΙΣΙΟΛΌΓΟΙ|ΚΑΡΔΙΟΛΌΓΟΙ|ΚΥΤΤΑΡΟΛΌΓΟΙ|ΜΑΙΕΥΤΉΡΕΣ - ΓΥΝΑΙΚΟΛΌΓΟΙ|ΜΙΚΡΟΒΙΟΛΌΓΟΙ|ΝΕΥΡΟΛΌΓΟΙ|ΝΕΦΡΟΛΌΓΟΙ|ΟΔΟΝΤΊΑΤΡΟΙ|ΟΡΘΟΠΕΔΙΚΟΊ|ΟΥΡΟΛΌΓΟΙ|ΟΦΘΑΛΜΊΑΤΡΟΙ|ΠΑΘΟΛΟΓΟΑΝΑΤΌΜΟΙ|ΠΑΘΟΛΌΓΟΙ|ΠΑΙΔΊΑΤΡΟΙ|ΦΥΜΑΤΙΟΛΌΓΟΙ - ΠΝΕΥΜΟΝΟΛΌΓΟΙ|ΧΕΙΡΟΥΡΓΟΊ ΓΕΝΙΚΉΣ ΧΕΙΡΟΥΡΓΙΚΉΣ|ΧΕΙΡΟΥΡΓΟΊ ΘΏΡΑΚΑ|ΨΥΧΊΑΤΡΟΙ|ΩΤΟΡΙΝΟΛΑΡΥΓΓΟΛΌΓΟΙ|ΑΓΓΕΙΟΧΕΙΡΟΥΡΓΟΊ|ΟΓΚΟΛΌΓΟΙ|ΕΝΤΑΤΙΚΟΛΌΓΟΙ|ΕΠΕΙΓΟΝΤΟΛΌΓΟΙ,2261350575,grammateia@levadiahospital.gr,https://www.levadiahospital.gr/,31/12/2023,22/04/2026,1,
EL_GR044,ΓΕΝΙΚΟ ΝΟΣΟΚΟΜΕΙΟ ΧΑΛΚΙΔΑΣ,,38.459867,23.61745,,,34100,ΧΑΛΚΙΔΑ,ΓΑΖΕΠΗ 48,EL,YES,,,,ΓΕΝΙΚΑ ΝΟΣΟΚΟΜΕΙΑ,PUBLIC,ΑΚΤΙΝΟΔΙΑΓΝΩΣΤΈΣ (ΑΚΤΙΝ. - ΡΑΔ.)|ΑΝΑΙΣΘΗΣΙΟΛΌΓΟΙ||ΜΑΙΕΥΤΉΡΕΣ - ΓΥΝΑΙΚΟΛΌΓΟΙ|ΜΙΚΡΟΒΙΟΛΌΓΟΙ|ΝΕΥΡΟΛΌΓΟΙ|ΝΕΦΡΟΛΌΓΟΙ|ΟΔΟΝΤΊΑΤΡΟΙ|ΟΡΘΟΠΕΔΙΚΟΊ|ΟΥΡΟΛΌΓΟΙ|ΟΦΘΑΛΜΊΑΤΡΟΙ|ΠΑΘΟΛΌΓΟΙ|ΠΑΙΔΊΑΤΡΟΙ|ΧΕΙΡΟΥΡΓΟΊ ΓΕΝΙΚΉΣ ΧΕΙΡΟΥΡΓΙΚΉΣ,2221355700,grammateia@chalkidahospital.gr,https://chalkidahospital.gr/,31/12/2023,22/04/2026,1,
EL_GR045,ΓΕΝΙΚΟ ΝΟΣΟΚΟΜΕΙΟ ΚΥΜΗΣ,,38.637853,24.10913,,,34003,ΚΥΜΗ,ΕΠ.ΟΔΟΣ ΚΥΜΗΣ-ΣΩΤΗΡΑ,EL,YES,,,,ΓΕΝΙΚΑ ΝΟΣΟΚΟΜΕΙΑ,PUBLIC,ΑΚΤΙΝΟΔΙΑΓΝΩΣΤΈΣ (ΑΚΤΙΝ. - ΡΑΔ.)|ΑΝΑΙΣΘΗΣΙΟΛΌΓΟΙ|ΓΕΝΙΚΉΣ ΙΑΤΡΙΚΉΣ|ΔΕΡΜΑΤΟΛΌΓΟΙ - ΑΦΡΟΔΙΣΙΟΛΌΓΟΙ||ΜΑΙΕΥΤΉΡΕΣ - ΓΥΝΑΙΚΟΛΌΓΟΙ|ΜΙΚΡΟΒΙΟΛΌΓΟΙ|ΝΕΥΡΟΛΌΓΟΙ|ΝΕΦΡΟΛΌΓΟΙ|ΟΡΘΟΠΕΔΙΚΟΊ|ΟΥΡΟΛΌΓΟΙ|ΠΑΘΟΛΌΓΟΙ|ΠΑΙΔΊΑΤΡΟΙ|ΠΑΙΔΟΨΥΧΊΑΤΡΟΙ|ΦΥΜΑΤΙΟΛΌΓΟΙ - ΠΝΕΥΜΟΝΟΛΌΓΟΙ|ΧΕΙΡΟΥΡΓΟΊ ΓΕΝΙΚΉΣ ΧΕΙΡΟΥΡΓΙΚΉΣ|ΨΥΧΊΑΤΡΟΙ|ΩΤΟΡΙΝΟΛΑΡΥΓΓΟΛΌΓΟΙ|ΕΝΤΑΤΙΚΟΛΌΓΟΙ,2222350126,grammateiadioikiti@gnkymis.gr,https://www.ghkymis.gr/,31/12/2023,22/04/2026,1,
EL_GR046,ΔΙΟΚΛΕΙΟ ΓΕΝ.ΝΟΣΟΚΟΜΕΙΟ-Κ.Υ.ΚΑΡΥΣΤΟΥ,,38.018875,24.42376,,,34001,ΚΑΡΥΣΤΟΣ,ΠΟΛΥΧΡ. ΚΟΤΣΙΚΑ 56,EL,YES,,,,ΓΕΝΙΚΑ ΝΟΣΟΚΟΜΕΙΑ,PUBLIC,ΑΙΜΑΤΟΛΌΓΟΙ|ΑΚΤΙΝΟΔΙΑΓΝΩΣΤΈΣ (ΑΚΤΙΝ. - ΡΑΔ.)|ΑΝΑΙΣΘΗΣΙΟΛΌΓΟΙ|ΓΑΣΤΡΕΝΤΕΡΟΛΌΓΟΙ|ΓΕΝΙΚΉΣ ΙΑΤΡΙΚΉΣ|ΔΕΡΜΑΤΟΛΌΓΟΙ - ΑΦΡΟΔΙΣΙΟΛΌΓΟΙ|ΚΑΡΔΙΟΛΌΓΟΙ|ΚΥΤΤΑΡΟΛΌΓΟΙ|ΜΑΙΕΥΤΉΡΕΣ - ΓΥΝΑΙΚΟΛΌΓΟΙ|ΜΙΚΡΟΒΙΟΛΌΓΟΙ|ΝΕΥΡΟΛΌΓΟΙ|ΝΕΥΡΟΧΕΙΡΟΥΡΓΟΊ|ΝΕΦΡΟΛΌΓΟΙ|ΟΔΟΝΤΊΑΤΡΟΙ|ΟΡΘΟΠΕΔΙΚΟΊ|ΟΥΡΟΛΌΓΟΙ|ΟΦΘΑΛΜΊΑΤΡΟΙ|ΠΑΘΟΛΌΓΟΙ|ΠΑΙΔΊΑΤΡΟΙ|ΠΑΙΔΟΨΥΧΊΑΤΡΟΙ|ΡΕΥΜΑΤΟΛΌΓΟΙ|ΦΥΜΑΤΙΟΛΌΓΟΙ - ΠΝΕΥΜΟΝΟΛΌΓΟΙ|ΧΕΙΡΟΥΡΓΟΊ ΓΕΝΙΚΉΣ ΧΕΙΡΟΥΡΓΙΚΉΣ|ΨΥΧΊΑΤΡΟΙ|ΩΤΟΡΙΝΟΛΑΡΥΓΓΟΛΌΓΟΙ|ΟΓΚΟΛΌΓΟΙ|ΕΝΤΑΤΙΚΟΛΌΓΟΙ|ΕΠΕΙΓΟΝΤΟΛΌΓΟΙ,2224350100,dioclion@karystos-hospital.gr,https://www.karystoshospital.gr/,31/12/2023,22/04/2026,1,
EL_GR047,ΓΕΝΙΚΟ ΝΟΣΟΚΟΜΕΙΟ ΚΑΡΠΕΝΗΣΙΟΥ,,38.914048,21.78979,,,36100,ΚΑΡΠΕΝΗΣΙΟΝ,Π.ΜΠΑΚΟΓΙΑΝΝΗ 2,EL,YES,,,,ΓΕΝΙΚΑ ΝΟΣΟΚΟΜΕΙΑ,PUBLIC,ΑΚΤΙΝΟΔΙΑΓΝΩΣΤΈΣ (ΑΚΤΙΝ. - ΡΑΔ.)|ΑΝΑΙΣΘΗΣΙΟΛΌΓΟΙ|ΓΑΣΤΡΕΝΤΕΡΟΛΌΓΟΙ|ΔΕΡΜΑΤΟΛΌΓΟΙ - ΑΦΡΟΔΙΣΙΟΛΌΓΟΙ||ΜΑΙΕΥΤΉΡΕΣ - ΓΥΝΑΙΚΟΛΌΓΟΙ|ΜΙΚΡΟΒΙΟΛΌΓΟΙ|ΝΕΥΡΟΛΌΓΟΙ|ΝΕΦΡΟΛΌΓΟΙ|ΟΡΘΟΠΕΔΙΚΟΊ|ΟΥΡΟΛΌΓΟΙ|ΟΦΘΑΛΜΊΑΤΡΟΙ|ΠΑΘΟΛΌΓΟΙ|ΠΑΙΔΊΑΤΡΟΙ|ΦΥΜΑΤΙΟΛΌΓΟΙ - ΠΝΕΥΜΟΝΟΛΌΓΟΙ|ΧΕΙΡΟΥΡΓΟΊ ΓΕΝΙΚΉΣ ΧΕΙΡΟΥΡΓΙΚΉΣ|ΨΥΧΊΑΤΡΟΙ,2237350100,info@karpenisihospital.gr,https://karpenisihospital.gr/,31/12/2023,22/04/2026,1,
EL_GR048,ΓΕΝΙΚΟ ΝΟΣΟΚΟΜΕΙΟ ΛΑΜΙΑΣ,,38.929088,22.42271,,,35100,ΛΑΜΙΑ,ΠΑΠΑΣΙΟΠΟΥΛΟΥ ΤΕΡΜΑ,EL,YES,,,,ΓΕΝΙΚΑ ΝΟΣΟΚΟΜΕΙΑ,PUBLIC,ΑΚΤΙΝΟΔΙΑΓΝΩΣΤΈΣ (ΑΚΤΙΝ. - ΡΑΔ.)ΜΙΚΡΟΒΙΟΛΌΓΟΙ|ΟΡΘΟΠΕΔΙΚΟΊ|ΟΦΘΑΛΜΊΑΤΡΟΙ|ΠΑΙΔΊΑΤΡΟΙ,2231356000,grammateia@hosplam.gr,https://www.hosplam.gr/,31/12/2023,22/04/2026,1,
EL_GR049,ΓΕΝΙΚΟ ΝΟΣΟΚΟΜΕΙΟ ΑΜΦΙΣΣΑΣ,,38.521010,22.37595,,,33100,ΑΜΦΙΣΣΑ,ΟΙΚΙΣΜΟΣ ΔΡΟΣΟΧΩΡΙΟΥ,EL,YES,,,,ΓΕΝΙΚΑ ΝΟΣΟΚΟΜΕΙΑ,PUBLIC,ΑΙΜΑΤΟΛΌΓΟΙ|ΑΚΤΙΝΟΔΙΑΓΝΩΣΤΈΣ (ΑΚΤΙΝ. - ΡΑΔ.)|ΑΝΑΙΣΘΗΣΙΟΛΌΓΟΙ|ΚΑΡΔΙΟΛΌΓΟΙ|ΚΥΤΤΑΡΟΛΌΓΟΙ|ΜΑΙΕΥΤΉΡΕΣ - ΓΥΝΑΙΚΟΛΌΓΟΙ|ΜΙΚΡΟΒΙΟΛΌΓΟΙ|ΝΕΥΡΟΛΌΓΟΙ|ΝΕΦΡΟΛΌΓΟΙ|ΟΔΟΝΤΊΑΤΡΟΙ|ΟΡΘΟΠΕΔΙΚΟΊ|ΟΥΡΟΛΌΓΟΙ|ΟΦΘΑΛΜΊΑΤΡΟΙ|ΠΑΘΟΛΟΓΟΑΝΑΤΌΜΟΙ|ΠΑΘΟΛΌΓΟΙ|ΠΑΙΔΊΑΤΡΟΙ|ΦΥΜΑΤΙΟΛΌΓΟΙ - ΠΝΕΥΜΟΝΟΛΌΓΟΙ|ΧΕΙΡΟΥΡΓΟΊ ΓΕΝΙΚΉΣ ΧΕΙΡΟΥΡΓΙΚΉΣ|ΨΥΧΊΑΤΡΟΙ|ΩΤΟΡΙΝΟΛΑΡΥΓΓΟΛΌΓΟΙ,2265022222,gnnamfis@otenet.gr,https://www.gnamfissas.gr/,31/12/2023,22/04/2026,1,
EL_GR0167,ΝΕΥΡΟΛΟΓΙΚΗ-ΨΥΧΙΑΤΡΙΚΗ ΚΛΙΝ.ΧΑΡ.Ν.ΣΙΝΟΥΡΗ Α.Ε,,38.087211,23.81017,,,14564,ΚΗΦΙΣΙΑ,ΤΑΤΟΙΟΥ 74,EL,ΝΟ,,,,ΝΕΥΡΟΨΥΧΙΑΤΡΙΚΑ,PRIVATE,ΠΑΘΟΛΌΓΟΙ|ΨΥΧΊΑΤΡΟΙ|ΧΩΡΊΣ ΕΙΔΙΚΌΤΗΤΑ,2108070703,info@sinouri.gr,https://sinouri.gr/,31/12/2023,22/04/2026,1,
EL_GR050,ΓΕΝΙΚΟ ΝΟΣΟΚΟΜΕΙΟ ΑΡΓΟΥΣ,,37.643491,22.72835,,,21200,ΑΡΓΟΣ,ΚΟΡΙΝΘΟΥ 191,EL,YES,,,,ΓΕΝΙΚΑ ΝΟΣΟΚΟΜΕΙΑ,PUBLIC,ΑΚΤΙΝΟΔΙΑΓΝΩΣΤΈΣ (ΑΚΤΙΝ. - ΡΑΔ.)|ΑΝΑΙΣΘΗΣΙΟΛΌΓΟΙ|ΓΑΣΤΡΕΝΤΕΡΟΛΌΓΟΙ|ΓΕΝΙΚΉΣ ΙΑΤΡΙΚΉΣ||ΜΑΙΕΥΤΉΡΕΣ - ΓΥΝΑΙΚΟΛΌΓΟΙ|ΜΙΚΡΟΒΙΟΛΌΓΟΙ|ΝΕΥΡΟΛΌΓΟΙ|ΝΕΥΡΟΧΕΙΡΟΥΡΓΟΊ|ΝΕΦΡΟΛΌΓΟΙ|ΟΔΟΝΤΊΑΤΡΟΙ|ΟΡΘΟΠΕΔΙΚΟΊ|ΟΥΡΟΛΌΓΟΙ|ΟΦΘΑΛΜΊΑΤΡΟΙ|ΠΑΘΟΛΌΓΟΙ|ΠΑΙΔΊΑΤΡΟΙ|ΦΥΜΑΤΙΟΛΌΓΟΙ - ΠΝΕΥΜΟΝΟΛΌΓΟΙ|ΧΕΙΡΟΥΡΓΟΊ ΓΕΝΙΚΉΣ ΧΕΙΡΟΥΡΓΙΚΉΣ|ΨΥΧΊΑΤΡΟΙ|ΩΤΟΡΙΝΟΛΑΡΥΓΓΟΛΌΓΟΙ|ΕΝΤΑΤΙΚΟΛΌΓΟΙ|ΕΠΕΙΓΟΝΤΟΛΌΓΟΙ,2751360100,politis@gna.gr,https://gna.gr/argos/,31/12/2023,22/04/2026,1,
EL_GR051,ΓΕΝΙΚΟ ΝΟΣΟΚΟΜΕΙΟ ΝΑΥΠΛΙΟΥ,,37.566308,22.80818,,,21100,ΝΑΥΠΛΙΟ,ΑΣΚΛΗΠΙΟΥ 10,EL,YES,,,,ΓΕΝΙΚΑ ΝΟΣΟΚΟΜΕΙΑ,PUBLIC,ΑΙΜΑΤΟΛΌΓΟΙ|ΑΚΤΙΝΟΔΙΑΓΝΩΣΤΈΣ (ΑΚΤΙΝ. - ΡΑΔ.)|ΑΝΑΙΣΘΗΣΙΟΛΌΓΟΙ|ΓΑΣΤΡΕΝΤΕΡΟΛΌΓΟΙ|ΓΕΝΙΚΉΣ ΙΑΤΡΙΚΉΣ||ΜΑΙΕΥΤΉΡΕΣ - ΓΥΝΑΙΚΟΛΌΓΟΙ|ΜΙΚΡΟΒΙΟΛΌΓΟΙ|ΝΕΥΡΟΛΌΓΟΙ|ΝΕΦΡΟΛΌΓΟΙ|ΟΔΟΝΤΊΑΤΡΟΙ|ΟΡΘΟΠΕΔΙΚΟΊ|ΟΥΡΟΛΌΓΟΙ|ΠΑΘΟΛΌΓΟΙ|ΠΑΙΔΊΑΤΡΟΙ|ΦΥΜΑΤΙΟΛΌΓΟΙ - ΠΝΕΥΜΟΝΟΛΌΓΟΙ|ΧΕΙΡΟΥΡΓΟΊ ΓΕΝΙΚΉΣ ΧΕΙΡΟΥΡΓΙΚΉΣ|ΩΤΟΡΙΝΟΛΑΡΥΓΓΟΛΌΓΟΙ|ΕΝΤΑΤΙΚΟΛΌΓΟΙ|ΕΠΕΙΓΟΝΤΟΛΌΓΟΙ,2752361100,info@gnn.gov.gr,http://www.gnn.gov.gr/,31/12/2023,22/04/2026,1,
EL_GR052,ΓΕΝΙΚΟ ΠΑΝΑΡΚΑΔΙΚΟ ΝΟΣΟΚΟΜΕΙΟ Η ΕΥΑΓΓΕΛΙΣΤΡΙΑ,,37.511379,22.36284,,,22100,ΤΡΙΠΟΛΗ,ΤΕΡΜΑ ΕΡΥΘΡΟΥ ΣΤΑΥΡΟΥ,EL,YES,,,,ΓΕΝΙΚΑ ΝΟΣΟΚΟΜΕΙΑ,PUBLIC,ΑΙΜΑΤΟΛΌΓΟΙ|ΑΚΤΙΝΟΔΙΑΓΝΩΣΤΈΣ (ΑΚΤΙΝ. - ΡΑΔ.)|ΑΝΑΙΣΘΗΣΙΟΛΌΓΟΙ|ΓΑΣΤΡΕΝΤΕΡΟΛΌΓΟΙ|ΓΕΝΙΚΉΣ ΙΑΤΡΙΚΉΣ|ΔΕΡΜΑΤΟΛΌΓΟΙ - ΑΦΡΟΔΙΣΙΟΛΌΓΟΙ|ΚΑΡΔΙΟΛΌΓΟΙ|ΚΥΤΤΑΡΟΛΌΓΟΙ|ΜΑΙΕΥΤΉΡΕΣ - ΓΥΝΑΙΚΟΛΌΓΟΙ|ΜΙΚΡΟΒΙΟΛΌΓΟΙ|ΝΕΥΡΟΛΌΓΟΙ|ΝΕΦΡΟΛΌΓΟΙ|ΟΔΟΝΤΊΑΤΡΟΙ|ΟΡΘΟΠΕΔΙΚΟΊ|ΟΥΡΟΛΌΓΟΙ|ΟΦΘΑΛΜΊΑΤΡΟΙ|ΠΑΘΟΛΟΓΟΑΝΑΤΌΜΟΙ|ΠΑΘΟΛΌΓΟΙ|ΠΑΙΔΊΑΤΡΟΙ.ΡΕΥΜΑΤΟΛΌΓΟΙ|ΦΥΜΑΤΙΟΛΌΓΟΙ - ΠΝΕΥΜΟΝΟΛΌΓΟΙ|ΧΕΙΡΟΥΡΓΟΊ ΓΕΝΙΚΉΣ ΧΕΙΡΟΥΡΓΙΚΉΣ|ΨΥΧΊΑΤΡΟΙ|ΩΤΟΡΙΝΟΛΑΡΥΓΓΟΛΌΓΟΙ|ΓΝΑΘΟΧΕΙΡΟΥΡΓΟΊ|ΕΝΤΑΤΙΚΟΛΌΓΟΙ,2713601700,grammateia@panarkadiko.eu,https://www.panarkadiko.eu/ns/,31/12/2023,22/04/2026,1,
EL_GR053,ΓΕΝ. ΝΟΣΟΚΟΜΕΙΟ ΠΑΤΡΩΝ Ο ΑΓΙΟΣ ΑΝΔΡΕΑΣ,,38.234549,21.74801,,,26335,ΠΑΤΡΑ,ΤΣΕΡΤΙΔΟΥ 1,EL,YES,,,,ΓΕΝΙΚΑ ΝΟΣΟΚΟΜΕΙΑ,PUBLIC,ΑΙΜΑΤΟΛΌΓΟΙ|ΑΚΤΙΝΟΘΕΡΑΠΕΥΤΈΣ|ΑΚΤΙΝΟΔΙΑΓΝΩΣΤΈΣ (ΑΚΤΙΝ. - ΡΑΔ.)|ΑΝΑΙΣΘΗΣΙΟΛΌΓΟΙ|ΓΑΣΤΡΕΝΤΕΡΟΛΌΓΟΙ|ΓΕΝΙΚΉΣ ΙΑΤΡΙΚΉΣ|ΔΕΡΜΑΤΟΛΌΓΟΙ - ΑΦΡΟΔΙΣΙΟΛΌΓΟΙ|ΕΝΔΟΚΡΙΝΟΛΌΓΟΙ|ΙΑΤΡΟΔΙΚΑΣΤΈΣ|ΚΑΡΔΙΟΛΌΓΟΙ|ΚΥΤΤΑΡΟΛΌΓΟΙ|ΜΑΙΕΥΤΉΡΕΣ - ΓΥΝΑΙΚΟΛΌΓΟΙ|ΜΙΚΡΟΒΙΟΛΌΓΟΙ|ΝΕΥΡΟΛΌΓΟΙ|ΝΕΥΡΟΧΕΙΡΟΥΡΓΟΊ|ΝΕΦΡΟΛΌΓΟΙ|ΟΔΟΝΤΊΑΤΡΟΙ|ΟΡΘΟΠΕΔΙΚΟΊ|ΟΥΡΟΛΌΓΟΙ|ΟΦΘΑΛΜΊΑΤΡΟΙ|ΠΑΘΟΛΟΓΟΑΝΑΤΌΜΟΙ|ΠΑΘΟΛΌΓΟΙ|ΠΑΙΔΊΑΤΡΟΙ|ΠΑΙΔΟΨΥΧΊΑΤΡΟΙ|ΠΥΡΗΝΙΚΉΣ ΙΑΤΡΙΚΉΣ|ΡΕΥΜΑΤΟΛΌΓΟΙ|ΦΥΜΑΤΙΟΛΌΓΟΙ - ΠΝΕΥΜΟΝΟΛΌΓΟΙ|ΦΥΣΙΚΉΣ ΙΑΤΡΙΚΉΣ ΚΑΙ ΑΠΟΚΑΤΆΣΤΑΣΗΣ|ΧΕΙΡΟΥΡΓΟΊ ΓΕΝΙΚΉΣ ΧΕΙΡΟΥΡΓΙΚΉΣ|ΧΕΙΡΟΥΡΓΟΊ ΘΏΡΑΚΑ|ΧΕΙΡΟΥΡΓΟΊ ΠΑΊΔΩΝ|ΧΕΙΡΟΥΡΓΟΊ ΠΛΑΣΤΙΚΉΣ ΧΕΙΡΟΥΡΓΙΚΉΣ|ΨΥΧΊΑΤΡΟΙ|ΩΤΟΡΙΝΟΛΑΡΥΓΓΟΛΌΓΟΙ|ΑΓΓΕΙΟΧΕΙΡΟΥΡΓΟΊ|ΓΝΑΘΟΧΕΙΡΟΥΡΓΟΊ|ΟΓΚΟΛΌΓΟΙ|ΕΝΤΑΤΙΚΟΛΌΓΟΙ|ΕΠΕΙΓΟΝΤΟΛΌΓΟΙ,2613601000,info@agandreashosp.gr,https://www.agandreashosp.gr/,31/12/2023,22/04/2026,1,
EL_GR054,ΓΕΝΙΚΟ ΝΟΣΟΚΟΜΕΙΟ ΠΑΙΔΩΝ ΚΑΡΑΜΑΝΔΑΝΕΙΟ,,38.237189,21.76091,,,26225,ΠΑΤΡΑ,ΕΡΥΘΡΟΥ ΣΤΑΥΡΟΥ 40,EL,YES,,,,ΠΑΙΔΙΑΤΡΙΚΑ,PUBLIC,ΑΙΜΑΤΟΛΌΓΟΙ|ΑΚΤΙΝΟΔΙΑΓΝΩΣΤΈΣ (ΑΚΤΙΝ. - ΡΑΔ.)|ΑΝΑΙΣΘΗΣΙΟΛΌΓΟΙ|ΓΕΝΙΚΉΣ ΙΑΤΡΙΚΉΣ|ΔΕΡΜΑΤΟΛΌΓΟΙ - ΑΦΡΟΔΙΣΙΟΛΌΓΟΙ||ΜΑΙΕΥΤΉΡΕΣ - ΓΥΝΑΙΚΟΛΌΓΟΙ|ΜΙΚΡΟΒΙΟΛΌΓΟΙ|ΝΕΥΡΟΛΌΓΟΙ|ΝΕΦΡΟΛΌΓΟΙ|ΟΔΟΝΤΊΑΤΡΟΙ|ΟΡΘΟΠΕΔΙΚΟΊ|ΟΥΡΟΛΌΓΟΙ|ΟΦΘΑΛΜΊΑΤΡΟΙ|ΠΑΘΟΛΟΓΟΑΝΑΤΌΜΟΙ|ΠΑΘΟΛΌΓΟΙ|ΠΑΙΔΊΑΤΡΟΙ|ΠΑΙΔΟΨΥΧΊΑΤΡΟΙ|ΧΕΙΡΟΥΡΓΟΊ ΓΕΝΙΚΉΣ ΧΕΙΡΟΥΡΓΙΚΉΣ|ΨΥΧΊΑΤΡΟΙ|ΩΤΟΡΙΝΟΛΑΡΥΓΓΟΛΌΓΟΙ,2610635100,info@karamandaneio.gov.gr,https://www.karamandaneio.gov.gr/,31/12/2023,22/04/2026,1,
EL_GR055,ΓΕΝΙΚΟ ΝΟΣΟΚΟΜΕΙΟ ΑΙΓΙΟΥ,,38.242197,22.07285,,,25100,ΑΙΓΙΟ,ΑΝΩ ΒΟΥΛΩΜΕΝΟ,EL,YES,,,,ΓΕΝΙΚΑ ΝΟΣΟΚΟΜΕΙΑ,PUBLIC,ΑΙΜΑΤΟΛΌΓΟΙ|ΑΚΤΙΝΟΔΙΑΓΝΩΣΤΈΣ (ΑΚΤΙΝ. - ΡΑΔ.)|ΑΝΑΙΣΘΗΣΙΟΛΌΓΟΙ|ΓΑΣΤΡΕΝΤΕΡΟΛΌΓΟΙ|ΓΕΝΙΚΉΣ ΙΑΤΡΙΚΉΣ||ΜΑΙΕΥΤΉΡΕΣ - ΓΥΝΑΙΚΟΛΌΓΟΙ|ΜΙΚΡΟΒΙΟΛΌΓΟΙ|ΝΕΥΡΟΛΌΓΟΙ|ΝΕΦΡΟΛΌΓΟΙ|ΟΔΟΝΤΊΑΤΡΟΙ|ΟΡΘΟΠΕΔΙΚΟΊ|ΟΥΡΟΛΌΓΟΙ|ΟΦΘΑΛΜΊΑΤΡΟΙ|ΠΑΘΟΛΟΓΟΑΝΑΤΌΜΟΙ|ΠΑΘΟΛΌΓΟΙ|ΠΑΙΔΊΑΤΡΟΙ|ΠΑΙΔΟΨΥΧΊΑΤΡΟΙ|ΡΕΥΜΑΤΟΛΌΓΟΙ|ΦΥΜΑΤΙΟΛΌΓΟΙ - ΠΝΕΥΜΟΝΟΛΌΓΟΙ|ΦΥΣΙΚΉΣ ΙΑΤΡΙΚΉΣ ΚΑΙ ΑΠΟΚΑΤΆΣΤΑΣΗΣ|ΧΕΙΡΟΥΡΓΟΊ ΓΕΝΙΚΉΣ ΧΕΙΡΟΥΡΓΙΚΉΣ|ΨΥΧΊΑΤΡΟΙ|ΩΤΟΡΙΝΟΛΑΡΥΓΓΟΛΌΓΟΙ|ΕΝΤΑΤΙΚΟΛΌΓΟΙ|ΕΠΕΙΓΟΝΤΟΛΌΓΟΙ,2691022222,ghospaigio@gnaigio.gr,http://www.gnaigio.gr/,31/12/2023,22/04/2026,1,
EL_GR063,ΓΕΝΙΚΟ ΝΟΣΟΚΟΜΕΙ ΛΑΚΩΝΙΑΣ - ΝΟΣ. ΜΟΝ. ΜΟΛΑΩΝ,,36.800970,22.85562,,,23052,ΜΟΛΑΟΙ,ΕΠΙΔΑΥΡΟΥ-ΛΙΜΗΡΑΣ 25,EL,YES,,,,ΓΕΝΙΚΑ ΝΟΣΟΚΟΜΕΙΑ,PUBLIC,ΑΙΜΑΤΟΛΌΓΟΙ|ΑΚΤΙΝΟΔΙΑΓΝΩΣΤΈΣ (ΑΚΤΙΝ. - ΡΑΔ.)|ΑΝΑΙΣΘΗΣΙΟΛΌΓΟΙ|ΙΑΤΡΟΔΙΚΑΣΤΈΣ||ΜΑΙΕΥΤΉΡΕΣ - ΓΥΝΑΙΚΟΛΌΓΟΙ|ΜΙΚΡΟΒΙΟΛΌΓΟΙ|ΟΡΘΟΠΕΔΙΚΟΊ|ΟΦΘΑΛΜΊΑΤΡΟΙ|ΠΑΘΟΛΌΓΟΙ|ΠΑΙΔΊΑΤΡΟΙ|ΧΕΙΡΟΥΡΓΟΊ ΓΕΝΙΚΉΣ ΧΕΙΡΟΥΡΓΙΚΉΣ|ΩΤΟΡΙΝΟΛΑΡΥΓΓΟΛΌΓΟΙ|ΙΑΤΡΙΚΉΣ ΓΕΝΕΤΙΚΉΣ,2732360100,grammateia@hosmol.gr,https://hosplak.gr/%CE%BD%CE%BF%CF%83%CE%B7%CE%BB%,31/12/2023,22/04/2026,1,
EL_GR056,ΓΕΝΙΚΟ ΝΟΣΟΚΟΜΕΙΟ - ΚΕΝΤΡΟ ΥΓΕΙΑΣ ΚΑΛΑΒΡΥΤΩΝ,,38.032626,22.10833,,,25001,ΚΑΛΑΒΡΥΤΑ,ΔΗΜΑΡΧΟΥ Π. ΠΟΛΚΑ 4,EL,YES,,,,ΓΕΝΙΚΑ ΝΟΣΟΚΟΜΕΙΑ,PUBLIC,ΑΙΜΑΤΟΛΌΓΟΙ|ΑΚΤΙΝΟΔΙΑΓΝΩΣΤΈΣ (ΑΚΤΙΝ. - ΡΑΔ.)|ΑΝΑΙΣΘΗΣΙΟΛΌΓΟΙ|ΓΑΣΤΡΕΝΤΕΡΟΛΌΓΟΙ|ΓΕΝΙΚΉΣ ΙΑΤΡΙΚΉΣ|ΔΕΡΜΑΤΟΛΌΓΟΙ - ΑΦΡΟΔΙΣΙΟΛΌΓΟΙ||ΜΑΙΕΥΤΉΡΕΣ - ΓΥΝΑΙΚΟΛΌΓΟΙ|ΜΙΚΡΟΒΙΟΛΌΓΟΙ|ΝΕΥΡΟΛΌΓΟΙ|ΝΕΦΡΟΛΌΓΟΙ|ΟΔΟΝΤΊΑΤΡΟΙ|ΟΡΘΟΠΕΔΙΚΟΊ|ΟΥΡΟΛΌΓΟΙ|ΟΦΘΑΛΜΊΑΤΡΟΙ|ΠΑΘΟΛΌΓΟΙ|ΠΑΙΔΊΑΤΡΟΙ|ΦΥΜΑΤΙΟΛΌΓΟΙ - ΠΝΕΥΜΟΝΟΛΌΓΟΙ|ΧΕΙΡΟΥΡΓΟΊ ΓΕΝΙΚΉΣ ΧΕΙΡΟΥΡΓΙΚΉΣ|ΧΕΙΡΟΥΡΓΟΊ ΠΑΊΔΩΝ|ΨΥΧΊΑΤΡΟΙ|ΩΤΟΡΙΝΟΛΑΡΥΓΓΟΛΌΓΟΙ|ΟΓΚΟΛΌΓΟΙ|ΕΝΤΑΤΙΚΟΛΌΓΟΙ|ΕΠΕΙΓΟΝΤΟΛΌΓΟΙ,2692022222,ghkalav@otenet.gr,http://www.gnaigio.gr/kalavryta/,31/12/2023,22/04/2026,1,
EL_GR057,"ΠΑΝΕΠΙΣΤΗΜΙΑΚΟ ΓΕΝ. ΝΟΣ. ΠΑΤΡΩΝ ""ΠΑΝΑΓΙΑ Η ΒΟΗΘΕΙΑ""",,38.294375,21.7955,,,26504,ΡΙΟ ΠΑΤΡΑΣ,ΙΠΠΟΚΡΑΤΟΥΣ,EL,YES,,,,ΓΕΝΙΚΑ ΝΟΣΟΚΟΜΕΙΑ,PUBLIC,ΑΙΜΑΤΟΛΌΓΟΙ|ΑΚΤΙΝΟΘΕΡΑΠΕΥΤΈΣ|ΑΚΤΙΝΟΔΙΑΓΝΩΣΤΈΣ (ΑΚΤΙΝ. - ΡΑΔ.)|ΑΝΑΙΣΘΗΣΙΟΛΌΓΟΙ|ΓΑΣΤΡΕΝΤΕΡΟΛΌΓΟΙ|ΓΕΝΙΚΉΣ ΙΑΤΡΙΚΉΣ|ΔΕΡΜΑΤΟΛΌΓΟΙ - ΑΦΡΟΔΙΣΙΟΛΌΓΟΙ|ΕΝΔΟΚΡΙΝΟΛΌΓΟΙ|ΙΑΤΡΙΚΉΣ ΤΗΣ ΕΡΓΑΣΊΑΣ|ΙΑΤΡΟΔΙΚΑΣΤΈΣ|ΚΑΡΔΙΟΛΌΓΟΙ|ΚΟΙΝΩΝΙΚΉΣ ΙΑΤΡΙΚΉΣ|ΚΥΤΤΑΡΟΛΌΓΟΙ|ΜΑΙΕΥΤΉΡΕΣ - ΓΥΝΑΙΚΟΛΌΓΟΙ|ΜΙΚΡΟΒΙΟΛΌΓΟΙ|ΝΕΥΡΟΛΌΓΟΙ|ΝΕΥΡΟΧΕΙΡΟΥΡΓΟΊ|ΝΕΦΡΟΛΌΓΟΙ|ΟΡΘΟΠΕΔΙΚΟΊ|ΟΥΡΟΛΌΓΟΙ|ΟΦΘΑΛΜΊΑΤΡΟΙ|ΠΑΘΟΛΟΓΟΑΝΑΤΌΜΟΙ|ΠΑΘΟΛΌΓΟΙ|ΠΑΙΔΊΑΤΡΟΙ|ΠΥΡΗΝΙΚΉΣ ΙΑΤΡΙΚΉΣ|ΡΕΥΜΑΤΟΛΌΓΟΙ|ΦΥΜΑΤΙΟΛΌΓΟΙ - ΠΝΕΥΜΟΝΟΛΌΓΟΙ|ΧΕΙΡΟΥΡΓΟΊ ΓΕΝΙΚΉΣ ΧΕΙΡΟΥΡΓΙΚΉΣ|ΧΕΙΡΟΥΡΓΟΊ ΘΏΡΑΚΑ|ΨΥΧΊΑΤΡΟΙ|ΩΤΟΡΙΝΟΛΑΡΥΓΓΟΛΌΓΟΙ|ΑΓΓΕΙΟΧΕΙΡΟΥΡΓΟΊ|ΓΝΑΘΟΧΕΙΡΟΥΡΓΟΊ|ΟΓΚΟΛΌΓΟΙ|ΕΝΤΑΤΙΚΟΛΌΓΟΙ|ΕΠΕΙΓΟΝΤΟΛΌΓΟΙ,2613603000,admindioik@pgnp.gr,https://www.pgnp.gr/,31/12/2023,22/04/2026,1,
EL_GR058,ΓΕΝΙΚΟ ΝΟΣΟΚΟΜΕΙΟ ΑΜΑΛΙΑΔΑΣ,,37.791109,21.35631,,,27200,ΑΜΑΛΙΑΔΑ,ΕΥΑΓΓΕΛΙΣΤΡΙΑΣ 128,EL,YES,,,,ΓΕΝΙΚΑ ΝΟΣΟΚΟΜΕΙΑ,PUBLIC,ΑΙΜΑΤΟΛΌΓΟΙ|ΑΚΤΙΝΟΔΙΑΓΝΩΣΤΈΣ (ΑΚΤΙΝ. - ΡΑΔ.)|ΑΝΑΙΣΘΗΣΙΟΛΌΓΟΙ|ΓΑΣΤΡΕΝΤΕΡΟΛΌΓΟΙ|ΓΕΝΙΚΉΣ ΙΑΤΡΙΚΉΣ|ΚΑΡΔΙΟΛΌΓΟΙ|ΚΥΤΤΑΡΟΛΌΓΟΙ|ΜΑΙΕΥΤΉΡΕΣ - ΓΥΝΑΙΚΟΛΌΓΟΙ|ΜΙΚΡΟΒΙΟΛΌΓΟΙ|ΝΕΥΡΟΛΌΓΟΙ|ΝΕΥΡΟΧΕΙΡΟΥΡΓΟΊ|ΝΕΦΡΟΛΌΓΟΙ|ΟΔΟΝΤΊΑΤΡΟΙ|ΟΡΘΟΠΕΔΙΚΟΊ|ΟΥΡΟΛΌΓΟΙ|ΟΦΘΑΛΜΊΑΤΡΟΙ|ΠΑΘΟΛΟΓΟΑΝΑΤΌΜΟΙ|ΠΑΘΟΛΌΓΟΙ|ΠΑΙΔΊΑΤΡΟΙ|ΠΑΙΔΟΨΥΧΊΑΤΡΟΙ|ΦΥΜΑΤΙΟΛΌΓΟΙ - ΠΝΕΥΜΟΝΟΛΌΓΟΙ|ΧΕΙΡΟΥΡΓΟΊ ΓΕΝΙΚΉΣ ΧΕΙΡΟΥΡΓΙΚΉΣ|ΨΥΧΊΑΤΡΟΙ|ΩΤΟΡΙΝΟΛΑΡΥΓΓΟΛΌΓΟΙ|ΟΓΚΟΛΌΓΟΙ|ΕΝΤΑΤΙΚΟΛΌΓΟΙ|ΕΠΕΙΓΟΝΤΟΛΌΓΟΙ,2622024351,info@amaliadahospital.gr,https://amaliadahospital.gr/,31/12/2023,22/04/2026,1,
EL_GR059,ΓΕΝΙΚΟ ΝΟΣΟΚΟΜΕΙΟ - K. Y. ΚΡΕΣΤΕΝΩΝ,,37.590565,21.61455,,,27055,ΚΡΕΣΤΕΝΑ,ΞΕΝΟΦΩΝΤΟΣ,EL,YES,,,,ΓΕΝΙΚΑ ΝΟΣΟΚΟΜΕΙΑ,PUBLIC,ΑΙΜΑΤΟΛΌΓΟΙ|ΑΚΤΙΝΟΔΙΑΓΝΩΣΤΈΣ (ΑΚΤΙΝ. - ΡΑΔ.)|ΑΝΑΙΣΘΗΣΙΟΛΌΓΟΙ|ΓΑΣΤΡΕΝΤΕΡΟΛΌΓΟΙ|ΓΕΝΙΚΉΣ ΙΑΤΡΙΚΉΣ|ΔΕΡΜΑΤΟΛΌΓΟΙ - ΑΦΡΟΔΙΣΙΟΛΌΓΟΙ||ΜΑΙΕΥΤΉΡΕΣ - ΓΥΝΑΙΚΟΛΌΓΟΙ|ΜΙΚΡΟΒΙΟΛΌΓΟΙ|ΝΕΥΡΟΛΌΓΟΙ|ΝΕΦΡΟΛΌΓΟΙ|ΟΔΟΝΤΊΑΤΡΟΙ|ΟΡΘΟΠΕΔΙΚΟΊ|ΟΥΡΟΛΌΓΟΙ|ΟΦΘΑΛΜΊΑΤΡΟΙ|ΠΑΘΟΛΟΓΟΑΝΑΤΌΜΟΙ|ΠΑΘΟΛΌΓΟΙ|ΠΑΙΔΊΑΤΡΟΙ|ΦΥΜΑΤΙΟΛΌΓΟΙ - ΠΝΕΥΜΟΝΟΛΌΓΟΙ|ΧΕΙΡΟΥΡΓΟΊ ΓΕΝΙΚΉΣ ΧΕΙΡΟΥΡΓΙΚΉΣ.ΧΕΙΡΟΥΡΓΟΊ ΠΛΑΣΤΙΚΉΣ ΧΕΙΡΟΥΡΓΙΚΉΣ|ΨΥΧΊΑΤΡΟΙ|ΩΤΟΡΙΝΟΛΑΡΥΓΓΟΛΌΓΟΙ|ΑΓΓΕΙΟΧΕΙΡΟΥΡΓΟΊ|ΟΓΚΟΛΌΓΟΙ|ΕΝΤΑΤΙΚΟΛΌΓΟΙ|ΕΠΕΙΓΟΝΤΟΛΌΓΟΙ,2625022222,grammateiagnk@yahoo.gr,https://www.nosokomeiokrestenon.gr/,31/12/2023,22/04/2026,1,
EL_GR060,ΓΕΝΙΚΟ ΝΟΣΟΚΟΜΕΙΟ ΠΥΡΓΟΥ,,37.683299,21.42362,,,27100,ΠΥΡΓΟΣ,ΠΥΡΓΟΥ-ΠΑΤΡΩΝ,EL,YES,,,,ΓΕΝΙΚΑ ΝΟΣΟΚΟΜΕΙΑ,PUBLIC,ΑΙΜΑΤΟΛΌΓΟΙ|ΑΚΤΙΝΟΔΙΑΓΝΩΣΤΈΣ (ΑΚΤΙΝ. - ΡΑΔ.)|ΑΝΑΙΣΘΗΣΙΟΛΌΓΟΙ|ΓΕΝΙΚΉΣ ΙΑΤΡΙΚΉΣ||ΜΑΙΕΥΤΉΡΕΣ - ΓΥΝΑΙΚΟΛΌΓΟΙ|ΜΙΚΡΟΒΙΟΛΌΓΟΙ|ΝΕΦΡΟΛΌΓΟΙ|ΟΔΟΝΤΊΑΤΡΟΙ|ΟΡΘΟΠΕΔΙΚΟΊ|ΟΥΡΟΛΌΓΟΙ|ΟΦΘΑΛΜΊΑΤΡΟΙ|ΠΑΘΟΛΌΓΟΙ|ΠΑΙΔΊΑΤΡΟΙ|ΦΥΜΑΤΙΟΛΌΓΟΙ - ΠΝΕΥΜΟΝΟΛΌΓΟΙ|ΧΕΙΡΟΥΡΓΟΊ ΓΕΝΙΚΉΣ ΧΕΙΡΟΥΡΓΙΚΉΣ|ΩΤΟΡΙΝΟΛΑΡΥΓΓΟΛΌΓΟΙ,2621361100,nosokpyrgou@nosokomeiopyrgoy.gr,https://nosokomeiopyrgoy.gr/,31/12/2023,22/04/2026,1,
EL_GR061,ΓΕΝΙΚΟ ΝΟΣΟΚΟΜΕΙΟ ΚΟΡΙΝΘΟΥ,,37.940025,22.94928,,,20100,ΚΟΡΙΝΘΟΣ,ΛΕΩΦ.ΑΘΗΝΩΝ 53,EL,YES,,,,ΓΕΝΙΚΑ ΝΟΣΟΚΟΜΕΙΑ,PUBLIC,ΑΚΤΙΝΟΔΙΑΓΝΩΣΤΈΣ (ΑΚΤΙΝ. - ΡΑΔ.)|ΑΝΑΙΣΘΗΣΙΟΛΌΓΟΙ|ΓΕΝΙΚΉΣ ΙΑΤΡΙΚΉΣ||ΜΑΙΕΥΤΉΡΕΣ - ΓΥΝΑΙΚΟΛΌΓΟΙ|ΜΙΚΡΟΒΙΟΛΌΓΟΙ|ΝΕΥΡΟΛΌΓΟΙ|ΝΕΦΡΟΛΌΓΟΙ|ΟΔΟΝΤΊΑΤΡΟΙ|ΟΡΘΟΠΕΔΙΚΟΊ|ΟΥΡΟΛΌΓΟΙ|ΟΦΘΑΛΜΊΑΤΡΟΙ|ΠΑΘΟΛΟΓΟΑΝΑΤΌΜΟΙ|ΠΑΘΟΛΌΓΟΙ|ΠΑΙΔΊΑΤΡΟΙ|ΦΥΜΑΤΙΟΛΌΓΟΙ - ΠΝΕΥΜΟΝΟΛΌΓΟΙ|ΧΕΙΡΟΥΡΓΟΊ ΓΕΝΙΚΉΣ ΧΕΙΡΟΥΡΓΙΚΉΣ|ΨΥΧΊΑΤΡΟΙ|ΩΤΟΡΙΝΟΛΑΡΥΓΓΟΛΌΓΟΙ|ΕΝΤΑΤΙΚΟΛΌΓΟΙ,2741361400,info@hospkorinthos.gr,http://www.hospkorinthos.gr/,31/12/2023,22/04/2026,1,
EL_GR062,ΓΕΝΙΚΟ ΝΟΣΟΚΟΜΕΙΟ ΛΑΚΩΝΙΑΣ - ΝΟΣ. ΜΟΝ. ΣΠΑΡΤΗΣ,,37.087321,22.42025,,,23100,ΣΠΑΡΤΗ,ΣΠΑΡΤΗ,EL,YES,,,,ΓΕΝΙΚΑ ΝΟΣΟΚΟΜΕΙΑ,PUBLIC,ΑΚΤΙΝΟΔΙΑΓΝΩΣΤΈΣ (ΑΚΤΙΝ. - ΡΑΔ.)|ΑΝΑΙΣΘΗΣΙΟΛΌΓΟΙ|ΓΑΣΤΡΕΝΤΕΡΟΛΌΓΟΙ|ΓΕΝΙΚΉΣ ΙΑΤΡΙΚΉΣ||ΜΑΙΕΥΤΉΡΕΣ - ΓΥΝΑΙΚΟΛΌΓΟΙ|ΜΙΚΡΟΒΙΟΛΌΓΟΙ|ΝΕΥΡΟΛΌΓΟΙ|ΝΕΦΡΟΛΌΓΟΙ|ΟΔΟΝΤΊΑΤΡΟΙ|ΟΡΘΟΠΕΔΙΚΟΊ|ΟΥΡΟΛΌΓΟΙ|ΟΦΘΑΛΜΊΑΤΡΟΙ|ΠΑΘΟΛΟΓΟΑΝΑΤΌΜΟΙ|ΠΑΘΟΛΌΓΟΙ|ΠΑΙΔΊΑΤΡΟΙ|ΦΥΜΑΤΙΟΛΌΓΟΙ - ΠΝΕΥΜΟΝΟΛΌΓΟΙ|ΦΥΣΙΚΉΣ ΙΑΤΡΙΚΉΣ ΚΑΙ ΑΠΟΚΑΤΆΣΤΑΣΗΣ|ΧΕΙΡΟΥΡΓΟΊ ΓΕΝΙΚΉΣ ΧΕΙΡΟΥΡΓΙΚΉΣ|ΧΕΙΡΟΥΡΓΟΊ ΘΏΡΑΚΑ|ΨΥΧΊΑΤΡΟΙ|ΩΤΟΡΙΝΟΛΑΡΥΓΓΟΛΌΓΟΙ|ΕΝΤΑΤΙΚΟΛΌΓΟΙ,2731093100,info@hospspa.gr,https://hosplak.gr/,31/12/2023,22/04/2026,1,
EL_GR065,ΓΕΝΙΚΟ ΝΟΣΟΚΟΜΕΙΟ ΚΥΠΑΡΙΣΣΙΑΣ - Κ.Υ. ΚΥΠΑΡΙΣΣΙΑΣ,,37.249466,21.66717,,,24500,ΚΥΠΑΡΙΣΣΙΑ,ΑΛ. ΚΑΛΑΤΖΑΚΟΥ 13,EL,YES,,,,ΓΕΝΙΚΑ ΝΟΣΟΚΟΜΕΙΑ,PUBLIC,ΑΚΤΙΝΟΔΙΑΓΝΩΣΤΈΣ (ΑΚΤΙΝ. - ΡΑΔ.)|ΑΝΑΙΣΘΗΣΙΟΛΌΓΟΙ|ΓΕΝΙΚΉΣ ΙΑΤΡΙΚΉΣ|ΔΕΡΜΑΤΟΛΌΓΟΙ - ΑΦΡΟΔΙΣΙΟΛΌΓΟΙ|ΚΑΡΔΙΟΛΌΓΟΙ|ΜΙΚΡΟΒΙΟΛΌΓΟΙ|ΝΕΥΡΟΛΌΓΟΙ|ΝΕΦΡΟΛΌΓΟΙ|ΟΔΟΝΤΊΑΤΡΟΙ|ΟΡΘΟΠΕΔΙΚΟΊ|ΟΥΡΟΛΌΓΟΙ|ΠΑΘΟΛΟΓΟΑΝΑΤΌΜΟΙ|ΠΑΘΟΛΌΓΟΙ|ΡΕΥΜΑΤΟΛΌΓΟΙ|ΦΥΜΑΤΙΟΛΌΓΟΙ - ΠΝΕΥΜΟΝΟΛΌΓΟΙ|ΧΕΙΡΟΥΡΓΟΊ ΓΕΝΙΚΉΣ ΧΕΙΡΟΥΡΓΙΚΉΣ|ΧΕΙΡΟΥΡΓΟΊ ΠΑΊΔΩΝ|ΕΝΤΑΤΙΚΟΛΌΓΟΙ|ΕΠΕΙΓΟΝΤΟΛΌΓΟΙ,2761024051,noskypar@otenet.gr,https://kyparissiahospital.gr/,31/12/2023,22/04/2026,1,
EL_GR066,ΓΕΝΙΚΟ ΝΟΣΟΚΟΜΕΙΟ ΖΑΚΥΝΘΟΥ ΑΓΙΟΣ ΔΙΟΝΥΣΙΟΣ,,37.784429,20.87635,,,29100,ΖΑΚΥΝΘΟΣ,ΓΑΙΤΑΝΙ,EL,YES,,,,ΓΕΝΙΚΑ ΝΟΣΟΚΟΜΕΙΑ,PUBLIC,ΑΙΜΑΤΟΛΌΓΟΙ|ΑΚΤΙΝΟΘΕΡΑΠΕΥΤΈΣ|ΑΚΤΙΝΟΔΙΑΓΝΩΣΤΈΣ (ΑΚΤΙΝ. - ΡΑΔ.)|ΑΝΑΙΣΘΗΣΙΟΛΌΓΟΙ|ΓΑΣΤΡΕΝΤΕΡΟΛΌΓΟΙ|ΓΕΝΙΚΉΣ ΙΑΤΡΙΚΉΣ|ΕΝΔΟΚΡΙΝΟΛΌΓΟΙ|ΙΑΤΡΙΚΉΣ ΤΗΣ ΕΡΓΑΣΊΑΣ|ΚΑΡΔΙΟΛΌΓΟΙ|ΚΥΤΤΑΡΟΛΌΓΟΙ|ΜΙΚΡΟΒΙΟΛΌΓΟΙ|ΝΕΥΡΟΛΌΓΟΙ|ΝΕΥΡΟΧΕΙΡΟΥΡΓΟΊ|ΝΕΦΡΟΛΌΓΟΙ|ΟΔΟΝΤΊΑΤΡΟΙ|ΟΡΘΟΠΕΔΙΚΟΊ|ΟΦΘΑΛΜΊΑΤΡΟΙ|ΠΑΘΟΛΟΓΟΑΝΑΤΌΜΟΙ|ΠΑΘΟΛΌΓΟΙ|ΠΑΙΔΊΑΤΡΟΙ|ΠΑΙΔΟΨΥΧΊΑΤΡΟΙ|ΠΥΡΗΝΙΚΉΣ ΙΑΤΡΙΚΉΣ|ΦΥΜΑΤΙΟΛΌΓΟΙ - ΠΝΕΥΜΟΝΟΛΌΓΟΙ|ΧΕΙΡΟΥΡΓΟΊ ΓΕΝΙΚΉΣ ΧΕΙΡΟΥΡΓΙΚΉΣ|ΧΕΙΡΟΥΡΓΟΊ ΘΏΡΑΚΑ|ΨΥΧΊΑΤΡΟΙ|ΩΤΟΡΙΝΟΛΑΡΥΓΓΟΛΌΓΟΙ|ΑΓΓΕΙΟΧΕΙΡΟΥΡΓΟΊ|ΟΓΚΟΛΌΓΟΙ|ΕΝΤΑΤΙΚΟΛΌΓΟΙ|ΕΠΕΙΓΟΝΤΟΛΌΓΟΙ,2695360500,info@zante-hospital.gr,https://zante-hospital.gr/el/,31/12/2023,22/04/2026,1,
EL_GR067,ΓΕΝΙΚΟ ΝΟΣΟΚΟΜΕΙΟ ΚΕΡΚΥΡΑΣ,,39.643498,19.85053,,,49100,ΚΕΡΚΥΡΑ,ΙΟΥΛΙΑΣ ΑΝΔΡΕΑΔΗ 1,EL,YES,,,,ΓΕΝΙΚΑ ΝΟΣΟΚΟΜΕΙΑ,PUBLIC,ΑΚΤΙΝΟΔΙΑΓΝΩΣΤΈΣ (ΑΚΤΙΝ. - ΡΑΔ.)|ΑΝΑΙΣΘΗΣΙΟΛΌΓΟΙ|ΓΑΣΤΡΕΝΤΕΡΟΛΌΓΟΙ|ΓΕΝΙΚΉΣ ΙΑΤΡΙΚΉΣ|ΕΝΔΟΚΡΙΝΟΛΌΓΟΙ|ΚΑΡΔΙΟΛΌΓΟΙ|ΜΙΚΡΟΒΙΟΛΌΓΟΙ|ΝΕΥΡΟΛΌΓΟΙ|ΟΡΘΟΠΕΔΙΚΟΊ|ΟΥΡΟΛΌΓΟΙ|ΠΑΘΟΛΟΓΟΑΝΑΤΌΜΟΙ|ΠΑΘΟΛΌΓΟΙ|ΠΑΙΔΊΑΤΡΟΙ|ΦΥΜΑΤΙΟΛΌΓΟΙ - ΠΝΕΥΜΟΝΟΛΌΓΟΙ|ΧΕΙΡΟΥΡΓΟΊ ΓΕΝΙΚΉΣ ΧΕΙΡΟΥΡΓΙΚΉΣ|ΩΤΟΡΙΝΟΛΑΡΥΓΓΟΛΌΓΟΙ|ΑΓΓΕΙΟΧΕΙΡΟΥΡΓΟΊ,2661360443,contact@gnkerkyras.gr,https://www.gnkerkyras.gr/,31/12/2023,22/04/2026,1,
EL_GR068,ΓΕΝΙΚΟ ΝΟΣΟΚΟΜΕΙΟ ΚΕΦΑΛΛΗΝΙΑΣ,,38.169476,20.4928,,,28100,ΑΡΓΟΣΤΟΛΙ,ΣΟΥΗΔΙΑΣ,EL,YES,,,,ΓΕΝΙΚΑ ΝΟΣΟΚΟΜΕΙΑ,PUBLIC,ΑΙΜΑΤΟΛΌΓΟΙ|ΑΚΤΙΝΟΔΙΑΓΝΩΣΤΈΣ (ΑΚΤΙΝ. - ΡΑΔ.)|ΑΝΑΙΣΘΗΣΙΟΛΌΓΟΙ|ΓΑΣΤΡΕΝΤΕΡΟΛΌΓΟΙ|ΓΕΝΙΚΉΣ ΙΑΤΡΙΚΉΣ||ΜΑΙΕΥΤΉΡΕΣ - ΓΥΝΑΙΚΟΛΌΓΟΙ|ΜΙΚΡΟΒΙΟΛΌΓΟΙ|ΟΔΟΝΤΊΑΤΡΟΙ|ΟΡΘΟΠΕΔΙΚΟΊ|ΟΥΡΟΛΌΓΟΙ|ΟΦΘΑΛΜΊΑΤΡΟΙ|ΠΑΘΟΛΟΓΟΑΝΑΤΌΜΟΙ|ΠΑΘΟΛΌΓΟΙ|ΦΥΜΑΤΙΟΛΌΓΟΙ - ΠΝΕΥΜΟΝΟΛΌΓΟΙ|ΧΕΙΡΟΥΡΓΟΊ ΓΕΝΙΚΉΣ ΧΕΙΡΟΥΡΓΙΚΉΣ|ΕΝΤΑΤΙΚΟΛΌΓΟΙ|ΕΠΕΙΓΟΝΤΟΛΌΓΟΙ,2671361100,secretary@1699.syzefxis.gov.gr,https://www.kefalonia-hospital.gr/el/,31/12/2023,22/04/2026,1,
EL_GR069,ΓΕΝΙΚΟ ΝΟΣΟΚΟΜΕΙΟ ΛΗΞΟΥΡΙΟΥ ΜΑΝΤΖΑΒΙΝΑΤΕΙΟ,,38.209226,20.4377,,,28200,ΛΗΞΟΥΡΙ,ΣΤ.ΤΥΠΑΛΔΟΥ 91,EL,YES,,,,ΓΕΝΙΚΑ ΝΟΣΟΚΟΜΕΙΑ,PUBLIC,ΑΙΜΑΤΟΛΌΓΟΙ|ΑΚΤΙΝΟΔΙΑΓΝΩΣΤΈΣ (ΑΚΤΙΝ. - ΡΑΔ.)|ΑΝΑΙΣΘΗΣΙΟΛΌΓΟΙ|ΓΑΣΤΡΕΝΤΕΡΟΛΌΓΟΙ|ΓΕΝΙΚΉΣ ΙΑΤΡΙΚΉΣ|ΔΕΡΜΑΤΟΛΌΓΟΙ - ΑΦΡΟΔΙΣΙΟΛΌΓΟΙ|ΕΝΔΟΚΡΙΝΟΛΌΓΟΙ|ΙΑΤΡΟΔΙΚΑΣΤΈΣ|ΚΑΡΔΙΟΛΌΓΟΙ|ΚΥΤΤΑΡΟΛΌΓΟΙ|ΜΑΙΕΥΤΉΡΕΣ - ΓΥΝΑΙΚΟΛΌΓΟΙ|ΜΙΚΡΟΒΙΟΛΌΓΟΙ|ΝΕΥΡΟΛΌΓΟΙ|ΝΕΥΡΟΧΕΙΡΟΥΡΓΟΊ|ΝΕΦΡΟΛΌΓΟΙ|ΟΔΟΝΤΊΑΤΡΟΙ|ΟΡΘΟΠΕΔΙΚΟΊ|ΟΥΡΟΛΌΓΟΙ|ΟΦΘΑΛΜΊΑΤΡΟΙ|ΠΑΘΟΛΟΓΟΑΝΑΤΌΜΟΙ|ΠΑΘΟΛΌΓΟΙ|ΠΑΙΔΊΑΤΡΟΙ|ΠΑΙΔΟΨΥΧΊΑΤΡΟΙ|ΠΥΡΗΝΙΚΉΣ ΙΑΤΡΙΚΉΣ|ΡΕΥΜΑΤΟΛΌΓΟΙ|ΦΥΜΑΤΙΟΛΌΓΟΙ - ΠΝΕΥΜΟΝΟΛΌΓΟΙ|ΧΕΙΡΟΥΡΓΟΊ ΓΕΝΙΚΉΣ ΧΕΙΡΟΥΡΓΙΚΉΣ|ΧΕΙΡΟΥΡΓΟΊ ΠΑΊΔΩΝ|ΨΥΧΊΑΤΡΟΙ|ΩΤΟΡΙΝΟΛΑΡΥΓΓΟΛΌΓΟΙ|ΑΓΓΕΙΟΧΕΙΡΟΥΡΓΟΊ|ΕΝΤΑΤΙΚΟΛΌΓΟΙ|ΕΠΕΙΓΟΝΤΟΛΌΓΟΙ,2671092222,,,31/12/2023,22/04/2026,1,
EL_GR070,ΓΕΝΙΚΟ ΝΟΣΟΚΟΜΕΙΟ ΛΕΥΚΑΔΑΣ,,38.826201,20.69741,,,31100,ΛΕΥΚΑΔΑ,ΒΑΛΑΩΡΙΤΟΥ 24,EL,YES,,,,ΓΕΝΙΚΑ ΝΟΣΟΚΟΜΕΙΑ,PUBLIC,ΑΚΤΙΝΟΔΙΑΓΝΩΣΤΈΣ (ΑΚΤΙΝ. - ΡΑΔ.)|ΚΑΡΔΙΟΛΌΓΟΙ|ΜΙΚΡΟΒΙΟΛΌΓΟΙ|ΝΕΥΡΟΛΌΓΟΙ|ΟΔΟΝΤΊΑΤΡΟΙ|ΠΑΘΟΛΌΓΟΙ|ΠΑΙΔΟΨΥΧΊΑΤΡΟΙ|ΨΥΧΊΑΤΡΟΙ,2645360200,info@lefkada-hospital.gr,http://www.lefkada-hospital.gr/,31/12/2023,22/04/2026,1,
EL_GR071,ΓΕΝΙΚΟ ΝΟΣΟΚΟΜΕΙΟ ΑΡΤΑΣ,,39.147813,20.99427,,,47100,ΑΡΤΑ,ΛΟΦΟΣ ΚΡΑΝΘΗΣ,EL,YES,,,,ΓΕΝΙΚΑ ΝΟΣΟΚΟΜΕΙΑ,PUBLIC,ΑΙΜΑΤΟΛΌΓΟΙ|ΑΚΤΙΝΟΘΕΡΑΠΕΥΤΈΣ|ΑΚΤΙΝΟΔΙΑΓΝΩΣΤΈΣ (ΑΚΤΙΝ. - ΡΑΔ.)|ΑΝΑΙΣΘΗΣΙΟΛΌΓΟΙ|ΓΑΣΤΡΕΝΤΕΡΟΛΌΓΟΙ|ΕΝΔΟΚΡΙΝΟΛΌΓΟΙ|ΚΑΡΔΙΟΛΌΓΟΙ|ΚΥΤΤΑΡΟΛΌΓΟΙ|ΜΑΙΕΥΤΉΡΕΣ - ΓΥΝΑΙΚΟΛΌΓΟΙ|ΜΙΚΡΟΒΙΟΛΌΓΟΙ|ΝΕΥΡΟΛΌΓΟΙ|ΟΥΡΟΛΌΓΟΙ|ΠΑΘΟΛΟΓΟΑΝΑΤΌΜΟΙ|ΠΑΘΟΛΌΓΟΙ|ΠΥΡΗΝΙΚΉΣ ΙΑΤΡΙΚΉΣ|ΦΥΜΑΤΙΟΛΌΓΟΙ - ΠΝΕΥΜΟΝΟΛΌΓΟΙ|ΧΕΙΡΟΥΡΓΟΊ ΓΕΝΙΚΉΣ ΧΕΙΡΟΥΡΓΙΚΉΣ|ΧΕΙΡΟΥΡΓΟΊ ΘΏΡΑΚΑ|ΧΕΙΡΟΥΡΓΟΊ ΠΛΑΣΤΙΚΉΣ ΧΕΙΡΟΥΡΓΙΚΉΣ|ΨΥΧΊΑΤΡΟΙ|ΩΤΟΡΙΝΟΛΑΡΥΓΓΟΛΌΓΟΙ|ΓΝΑΘΟΧΕΙΡΟΥΡΓΟΊ|ΟΓΚΟΛΌΓΟΙ|ΕΝΤΑΤΙΚΟΛΌΓΟΙ,2681361444,gna@gnartas.gr,https://gnartas.gov.gr/,31/12/2023,22/04/2026,1,
EL_GR129,ΓΕΝΙΚΟ ΝΟΣΟΚΟΜΕΙΟ - Κ.Υ. ΝΕΑΠΟΛΗΣ ΔΙΑΛΥΝΑΚΕΙΟ,,35.254849,25.60862,,,72400,ΝΕΑΠΟΛΗ,Γ.ΔΙΑΛΥΝΑ,EL,YES,,,,ΓΕΝΙΚΑ ΝΟΣΟΚΟΜΕΙΑ,PUBLIC,,2841340801,grammateia@0529.syzefxis.gov.gr,http://www.dialynakeio.com/,31/12/2023,22/04/2026,1,
EL_GR130,ΓΕΝΙΚΟ ΝΟΣΟΚ.ΡΕΘΥΜΝΟΥ,,35.365134,24.47151,,,74100,ΡΕΘΥΜΝΟ,ΤΡΑΝΤΑΛΙΔΟΥ 17,EL,YES,,,,ΓΕΝΙΚΑ ΝΟΣΟΚΟΜΕΙΑ,PUBLIC,,2831342100,info@rethymnohospital.gr,http://www.rethymnohospital.gr/,31/12/2023,22/04/2026,1,
EL_GR072,ΓΕΝΙΚΟ ΝΟΣΟΚΟΜΕΙΟ ΦΙΛΙΑΤΩΝ,,39.598498,20.31473,,,46300,ΦΙΛΙΑΤΕΣ,ΦΙΛΙΑΤΕΣ,EL,YES,,,,ΓΕΝΙΚΑ ΝΟΣΟΚΟΜΕΙΑ,PUBLIC,ΑΙΜΑΤΟΛΌΓΟΙ|ΑΚΤΙΝΟΔΙΑΓΝΩΣΤΈΣ (ΑΚΤΙΝ. - ΡΑΔ.)|ΑΝΑΙΣΘΗΣΙΟΛΌΓΟΙ|ΓΑΣΤΡΕΝΤΕΡΟΛΌΓΟΙ|ΓΕΝΙΚΉΣ ΙΑΤΡΙΚΉΣ|ΚΑΡΔΙΟΛΌΓΟΙ|ΚΥΤΤΑΡΟΛΌΓΟΙ|ΜΙΚΡΟΒΙΟΛΌΓΟΙ|ΝΕΥΡΟΛΌΓΟΙ|ΝΕΥΡΟΧΕΙΡΟΥΡΓΟΊ|ΝΕΦΡΟΛΌΓΟΙ|ΟΡΘΟΠΕΔΙΚΟΊ|ΟΦΘΑΛΜΊΑΤΡΟΙ|ΠΑΘΟΛΟΓΟΑΝΑΤΌΜΟΙ|ΠΑΘΟΛΌΓΟΙ|ΠΑΙΔΊΑΤΡΟΙ|ΠΑΙΔΟΨΥΧΊΑΤΡΟΙ|ΦΥΜΑΤΙΟΛΌΓΟΙ - ΠΝΕΥΜΟΝΟΛΌΓΟΙ|ΧΕΙΡΟΥΡΓΟΊ ΓΕΝΙΚΉΣ ΧΕΙΡΟΥΡΓΙΚΉΣ|ΧΕΙΡΟΥΡΓΟΊ ΘΏΡΑΚΑ|ΧΕΙΡΟΥΡΓΟΊ ΠΛΑΣΤΙΚΉΣ ΧΕΙΡΟΥΡΓΙΚΉΣ|ΨΥΧΊΑΤΡΟΙ|ΩΤΟΡΙΝΟΛΑΡΥΓΓΟΛΌΓΟΙ|ΑΓΓΕΙΟΧΕΙΡΟΥΡΓΟΊ|ΓΝΑΘΟΧΕΙΡΟΥΡΓΟΊ|ΟΓΚΟΛΌΓΟΙ|ΕΝΤΑΤΙΚΟΛΌΓΟΙ|ΕΠΕΙΓΟΝΤΟΛΌΓΟΙ,2664360222,info@gnfiliaton.gov.gr,https://www.gnfiliaton.gov.gr/,31/12/2023,22/04/2026,1,
EL_GR073,ΓΕΝIKO ΝΟΣOKOMEIO ΙΩΑΝΝΙΝΩΝ Γ.ΧΑΤΖΗΚΩΣΤΑ,,39.682114,20.82648,,,45445,ΙΩΑΝΝΙΝΑ,ΛΕΩΦ.ΜΑΚΡΥΓΙΑΝΗ 60,EL,YES,,,,ΓΕΝΙΚΑ ΝΟΣΟΚΟΜΕΙΑ,PUBLIC,ΑΙΜΑΤΟΛΌΓΟΙ|ΑΚΤΙΝΟΘΕΡΑΠΕΥΤΈΣ|ΑΚΤΙΝΟΔΙΑΓΝΩΣΤΈΣ (ΑΚΤΙΝ. - ΡΑΔ.)|ΑΝΑΙΣΘΗΣΙΟΛΌΓΟΙ|ΓΑΣΤΡΕΝΤΕΡΟΛΌΓΟΙ|ΓΕΝΙΚΉΣ ΙΑΤΡΙΚΉΣ|ΔΕΡΜΑΤΟΛΌΓΟΙ - ΑΦΡΟΔΙΣΙΟΛΌΓΟΙ|ΕΝΔΟΚΡΙΝΟΛΌΓΟΙ|ΙΑΤΡΙΚΉΣ ΤΗΣ ΕΡΓΑΣΊΑΣ|ΚΑΡΔΙΟΛΌΓΟΙ|ΚΥΤΤΑΡΟΛΌΓΟΙ|ΜΑΙΕΥΤΉΡΕΣ - ΓΥΝΑΙΚΟΛΌΓΟΙ|ΜΙΚΡΟΒΙΟΛΌΓΟΙ|ΝΕΥΡΟΛΌΓΟΙ|ΝΕΥΡΟΧΕΙΡΟΥΡΓΟΊ|ΝΕΦΡΟΛΌΓΟΙ|ΟΔΟΝΤΊΑΤΡΟΙ|ΟΡΘΟΠΕΔΙΚΟΊ|ΟΥΡΟΛΌΓΟΙ|ΟΦΘΑΛΜΊΑΤΡΟΙ|ΠΑΘΟΛΟΓΟΑΝΑΤΌΜΟΙ|ΠΑΘΟΛΌΓΟΙ|ΠΑΙΔΊΑΤΡΟΙ|ΠΥΡΗΝΙΚΉΣ ΙΑΤΡΙΚΉΣ|ΡΕΥΜΑΤΟΛΌΓΟΙ|ΦΥΜΑΤΙΟΛΌΓΟΙ - ΠΝΕΥΜΟΝΟΛΌΓΟΙ|ΧΕΙΡΟΥΡΓΟΊ ΓΕΝΙΚΉΣ ΧΕΙΡΟΥΡΓΙΚΉΣ|ΧΕΙΡΟΥΡΓΟΊ ΘΏΡΑΚΑ|ΧΕΙΡΟΥΡΓΟΊ ΠΑΊΔΩΝ|ΧΕΙΡΟΥΡΓΟΊ ΠΛΑΣΤΙΚΉΣ ΧΕΙΡΟΥΡΓΙΚΉΣ|ΨΥΧΊΑΤΡΟΙ|ΩΤΟΡΙΝΟΛΑΡΥΓΓΟΛΌΓΟΙ|ΑΓΓΕΙΟΧΕΙΡΟΥΡΓΟΊ|ΟΓΚΟΛΌΓΟΙ|ΕΝΤΑΤΙΚΟΛΌΓΟΙ|ΕΠΕΙΓΟΝΤΟΛΌΓΟΙ,2651366111,protokolo@gni-hatzikosta.gr,https://www.gni-hatzikosta.gr/,31/12/2023,22/04/2026,1,
EL_GR074,ΠΑΝΕΠΙΣΤ. ΓΕΝΙΚΟ ΝΟΣ. ΔΟΥΡΟΥΤΗΣ,,39.621263,20.84029,,,45445,ΙΩΑΝΝΙΝΑ,ΛΕΩΦ.ΠΑΝΕΠΙΣΤΗΜΙΟΥ,EL,YES,,,,ΓΕΝΙΚΑ ΝΟΣΟΚΟΜΕΙΑ,PUBLIC,ΑΙΜΑΤΟΛΌΓΟΙ|ΑΚΤΙΝΟΔΙΑΓΝΩΣΤΈΣ (ΑΚΤΙΝ. - ΡΑΔ.)|ΑΝΑΙΣΘΗΣΙΟΛΌΓΟΙ|ΓΑΣΤΡΕΝΤΕΡΟΛΌΓΟΙ|ΓΕΝΙΚΉΣ ΙΑΤΡΙΚΉΣ|ΚΑΡΔΙΟΛΌΓΟΙ|ΚΥΤΤΑΡΟΛΌΓΟΙ|ΜΑΙΕΥΤΉΡΕΣ - ΓΥΝΑΙΚΟΛΌΓΟΙ|ΜΙΚΡΟΒΙΟΛΌΓΟΙ|ΝΕΥΡΟΛΌΓΟΙ|ΝΕΥΡΟΧΕΙΡΟΥΡΓΟΊ|ΝΕΦΡΟΛΌΓΟΙ|ΟΔΟΝΤΊΑΤΡΟΙ|ΟΡΘΟΠΕΔΙΚΟΊ|ΟΥΡΟΛΌΓΟΙ|ΟΦΘΑΛΜΊΑΤΡΟΙ|ΠΑΘΟΛΟΓΟΑΝΑΤΌΜΟΙ|ΠΑΘΟΛΌΓΟΙ|ΠΑΙΔΊΑΤΡΟΙ|ΠΥΡΗΝΙΚΉΣ ΙΑΤΡΙΚΉΣ|ΡΕΥΜΑΤΟΛΌΓΟΙ|ΦΥΜΑΤΙΟΛΌΓΟΙ - ΠΝΕΥΜΟΝΟΛΌΓΟΙ|ΦΥΣΙΚΉΣ ΙΑΤΡΙΚΉΣ ΚΑΙ ΑΠΟΚΑΤΆΣΤΑΣΗΣ|ΧΕΙΡΟΥΡΓΟΊ ΓΕΝΙΚΉΣ ΧΕΙΡΟΥΡΓΙΚΉΣ|ΧΕΙΡΟΥΡΓΟΊ ΘΏΡΑΚΑ|ΨΥΧΊΑΤΡΟΙ|ΩΤΟΡΙΝΟΛΑΡΥΓΓΟΛΌΓΟΙ|ΑΓΓΕΙΟΧΕΙΡΟΥΡΓΟΊ|ΟΓΚΟΛΌΓΟΙ|ΕΝΤΑΤΙΚΟΛΌΓΟΙ|ΕΠΕΙΓΟΝΤΟΛΌΓΟΙ,2651099111,info@uhi.gr,https://uhi.gr/contact/,31/12/2023,22/04/2026,1,
EL_GR075,ΓΕΝIKO ΝΟΣΟΚΟΜΕΙΟ ΠΡΕΒΕΖΑΣ,,38.965490,20.75369,,,48100,ΠΡΕΒΕΖΑ,ΣΕΛΕΥΚΕΙΑΣ 2,EL,YES,,,,ΓΕΝΙΚΑ ΝΟΣΟΚΟΜΕΙΑ,PUBLIC,ΑΚΤΙΝΟΔΙΑΓΝΩΣΤΈΣ (ΑΚΤΙΝ. - ΡΑΔ.)|ΑΝΑΙΣΘΗΣΙΟΛΌΓΟΙ|ΓΕΝΙΚΉΣ ΙΑΤΡΙΚΉΣ||ΜΑΙΕΥΤΉΡΕΣ - ΓΥΝΑΙΚΟΛΌΓΟΙ|ΜΙΚΡΟΒΙΟΛΌΓΟΙ|ΝΕΥΡΟΛΌΓΟΙ|ΝΕΦΡΟΛΌΓΟΙ|ΟΡΘΟΠΕΔΙΚΟΊ|ΟΥΡΟΛΌΓΟΙ|ΟΦΘΑΛΜΊΑΤΡΟΙ|ΠΑΘΟΛΌΓΟΙ|ΠΑΙΔΊΑΤΡΟΙ|ΦΥΣΙΚΉΣ ΙΑΤΡΙΚΉΣ ΚΑΙ ΑΠΟΚΑΤΆΣΤΑΣΗΣ|ΧΕΙΡΟΥΡΓΟΊ ΓΕΝΙΚΉΣ ΧΕΙΡΟΥΡΓΙΚΉΣ|ΩΤΟΡΙΝΟΛΑΡΥΓΓΟΛΌΓΟΙ,2682361390,info@prevezahospital.gr,https://www.prevezahospital.gr/,31/12/2023,22/04/2026,1,
FR_740000401,CENTRE DE LONG SEJOUR DE REIGNIER,,46.1300545,6.2699788,R DES VENTS BLANCS,61,74930,REIGNIER ESERY,,FR,,,,,,Public,Gériatrie,450438000.0,,,08/09/2023,22/04/2026,-1,
FR_720014539,UNITE DE SOINS DE LONGUE DUREE CH FRANCOIS DE DAILLON,,47.64661595,0.1585722324537152,R DE L'HOPITAL,93,72800,LE LUDE,,FR,,,,,,Public,,243484848.0,,,08/09/2023,22/04/2026,-1,
FR_720014968,UNITE SOINS LONGUE DUREE CENTRE HOSPITALIER DE MAMERS,,48.3478861,0.3675203,RTE DU MESLE SUR SARTHE,,72600,MAMERS,,FR,,,,,,Public,,243313138.0,,,08/09/2023,22/04/2026,-1,
FR_720022961,EML CH LE MANS - SITE DU CENTRE DE CANCEROLOGIE DE LA SARTHE,,48.0149637,0.1824198,R DEGRÉ,,72000,LE MANS,,FR,,,,,,Public,,,,,08/09/2023,22/04/2026,-1,
FR_730785342,USLD MOUTIERS,,45.4839001,6.5341905,R DE L'ÉCOLE DES MINES,43,73604,MOUTIERS TARENTAISE CEDEX,,FR,,,,,,Public,,479096060.0,,,08/09/2023,22/04/2026,-1,
FR_730790391,CENTRE DE PLANIFICATION,,45.6963536,5.9035908,BD PIERPONT MORGAN,4,73100,AIX LES BAINS,,FR,,,,,,Public,,479886161.0,,,08/09/2023,22/04/2026,-1,
EL_GR076,ΓΕΝΙΚΟ ΝΟΣΟΚΟΜΕΙΟ ΚΑΡΔΙΤΣΑΣ,,39.352346,21.90584,,,43100,ΚΑΡΔΙΤΣΑ,ΤΑΥΡΩΠΟΥ ΤΕΡΜΑ,EL,YES,,,,ΓΕΝΙΚΑ ΝΟΣΟΚΟΜΕΙΑ,PUBLIC,ΑΙΜΑΤΟΛΌΓΟΙ|ΑΚΤΙΝΟΔΙΑΓΝΩΣΤΈΣ (ΑΚΤΙΝ. - ΡΑΔ.)|ΑΝΑΙΣΘΗΣΙΟΛΌΓΟΙ|ΓΑΣΤΡΕΝΤΕΡΟΛΌΓΟΙ|ΓΕΝΙΚΉΣ ΙΑΤΡΙΚΉΣ||ΜΑΙΕΥΤΉΡΕΣ - ΓΥΝΑΙΚΟΛΌΓΟΙ|ΜΙΚΡΟΒΙΟΛΌΓΟΙ|ΝΕΦΡΟΛΌΓΟΙ|ΟΔΟΝΤΊΑΤΡΟΙ|ΟΡΘΟΠΕΔΙΚΟΊ|ΟΥΡΟΛΌΓΟΙ|ΟΦΘΑΛΜΊΑΤΡΟΙ|ΠΑΘΟΛΌΓΟΙ|ΠΑΙΔΊΑΤΡΟΙ|ΦΥΜΑΤΙΟΛΌΓΟΙ - ΠΝΕΥΜΟΝΟΛΌΓΟΙ|ΧΕΙΡΟΥΡΓΟΊ ΓΕΝΙΚΉΣ ΧΕΙΡΟΥΡΓΙΚΉΣ|ΨΥΧΊΑΤΡΟΙ|ΩΤΟΡΙΝΟΛΑΡΥΓΓΟΛΌΓΟΙ|ΟΓΚΟΛΌΓΟΙ|ΕΝΤΑΤΙΚΟΛΌΓΟΙ|ΕΠΕΙΓΟΝΤΟΛΌΓΟΙ,2441351555,protokolo@noskard.gr,https://www.noskard.gr/,31/12/2023,22/04/2026,1,
EL_GR077,ΓΕΝΙΚΟ ΝΟΣΟΚΟΜΕΙΟ ΚΟΥΤΛΙΜΠΑΝΕΙΟ & ΤΡΙΑΝΤΑΦΥΛΛΕΙΟ,,39.642499,22.42219,,,41221,ΛΑΡΙΣΑ,ΤΣΑΚΑΛΩΦ 1,EL,YES,,,,ΓΕΝΙΚΑ ΝΟΣΟΚΟΜΕΙΑ,PUBLIC,ΑΚΤΙΝΟΔΙΑΓΝΩΣΤΈΣ (ΑΚΤΙΝ. - ΡΑΔ.)|ΑΝΑΙΣΘΗΣΙΟΛΌΓΟΙ|ΓΕΝΙΚΉΣ ΙΑΤΡΙΚΉΣ||ΜΑΙΕΥΤΉΡΕΣ - ΓΥΝΑΙΚΟΛΌΓΟΙ|ΜΙΚΡΟΒΙΟΛΌΓΟΙ|ΟΡΘΟΠΕΔΙΚΟΊ|ΠΑΘΟΛΌΓΟΙ|ΠΑΙΔΊΑΤΡΟΙ|ΦΥΜΑΤΙΟΛΌΓΟΙ - ΠΝΕΥΜΟΝΟΛΌΓΟΙ|ΧΕΙΡΟΥΡΓΟΊ ΓΕΝΙΚΉΣ ΧΕΙΡΟΥΡΓΙΚΉΣ,2410259674,gen.nosokomeio.laris@ghl.gr,http://www.ghl.gr/,31/12/2023,22/04/2026,1,
EL_GR078,ΠΑΝΕΠΙΣΤΗΜΙΑΚΟ ΓΕΝΙΚΟ ΝΟΣΟΚΟΜΕΙΟ ΛΑΡΙΣΑΣ,,39.611407,22.38573,,,41222,ΛΑΡΙΣΑ,ΜΕΖΟΥΡΛΟ,EL,YES,,,,ΓΕΝΙΚΑ ΝΟΣΟΚΟΜΕΙΑ,PUBLIC,ΑΙΜΑΤΟΛΌΓΟΙ|ΑΚΤΙΝΟΘΕΡΑΠΕΥΤΈΣ|ΑΚΤΙΝΟΔΙΑΓΝΩΣΤΈΣ (ΑΚΤΙΝ. - ΡΑΔ.)|ΑΝΑΙΣΘΗΣΙΟΛΌΓΟΙ|ΓΑΣΤΡΕΝΤΕΡΟΛΌΓΟΙ|ΓΕΝΙΚΉΣ ΙΑΤΡΙΚΉΣ|ΔΕΡΜΑΤΟΛΌΓΟΙ - ΑΦΡΟΔΙΣΙΟΛΌΓΟΙ|ΚΑΡΔΙΟΛΌΓΟΙ|ΚΥΤΤΑΡΟΛΌΓΟΙ|ΜΑΙΕΥΤΉΡΕΣ - ΓΥΝΑΙΚΟΛΌΓΟΙ|ΜΙΚΡΟΒΙΟΛΌΓΟΙ|ΝΕΥΡΟΛΌΓΟΙ|ΝΕΦΡΟΛΌΓΟΙ|ΟΔΟΝΤΊΑΤΡΟΙ|ΟΡΘΟΠΕΔΙΚΟΊ|ΟΥΡΟΛΌΓΟΙ|ΟΦΘΑΛΜΊΑΤΡΟΙ|ΠΑΘΟΛΟΓΟΑΝΑΤΌΜΟΙ|ΠΑΘΟΛΌΓΟΙ|ΠΑΙΔΊΑΤΡΟΙ|ΦΥΜΑΤΙΟΛΌΓΟΙ - ΠΝΕΥΜΟΝΟΛΌΓΟΙ|ΧΕΙΡΟΥΡΓΟΊ ΓΕΝΙΚΉΣ ΧΕΙΡΟΥΡΓΙΚΉΣ|ΨΥΧΊΑΤΡΟΙ|ΩΤΟΡΙΝΟΛΑΡΥΓΓΟΛΌΓΟΙ|ΕΝΤΑΤΙΚΟΛΌΓΟΙ,2413501000,uhosplar@uhl.gr,https://www.uhl.gr/,31/12/2023,22/04/2026,1,
EL_GR079,ΓΕΝΙΚΟ ΝΟΣΟΚΟΜΕΙΟ ΒΟΛΟΥ ΑΧΙΛΛΟΠΟΥΛΕΙΟ,,39.352805,22.96185,,,38222,ΒΟΛΟΣ,ΠΟΛΥΜΕΡΗ 134,EL,YES,,,,ΓΕΝΙΚΑ ΝΟΣΟΚΟΜΕΙΑ,PUBLIC,ΑΙΜΑΤΟΛΌΓΟΙ|ΑΚΤΙΝΟΔΙΑΓΝΩΣΤΈΣ (ΑΚΤΙΝ. - ΡΑΔ.)|ΑΝΑΙΣΘΗΣΙΟΛΌΓΟΙ|ΓΕΝΙΚΉΣ ΙΑΤΡΙΚΉΣ|ΚΑΡΔΙΟΛΌΓΟΙ|ΚΥΤΤΑΡΟΛΌΓΟΙ|ΜΑΙΕΥΤΉΡΕΣ - ΓΥΝΑΙΚΟΛΌΓΟΙ|ΜΙΚΡΟΒΙΟΛΌΓΟΙ|ΝΕΦΡΟΛΌΓΟΙ|ΟΔΟΝΤΊΑΤΡΟΙ|ΟΡΘΟΠΕΔΙΚΟΊ|ΟΥΡΟΛΌΓΟΙ|ΟΦΘΑΛΜΊΑΤΡΟΙ|ΠΑΘΟΛΌΓΟΙ|ΠΑΙΔΊΑΤΡΟΙΦΥΜΑΤΙΟΛΌΓΟΙ - ΠΝΕΥΜΟΝΟΛΌΓΟΙ|ΧΕΙΡΟΥΡΓΟΊ ΓΕΝΙΚΉΣ ΧΕΙΡΟΥΡΓΙΚΉΣ|ΩΤΟΡΙΝΟΛΑΡΥΓΓΟΛΌΓΟΙ|ΟΓΚΟΛΌΓΟΙ|ΕΝΤΑΤΙΚΟΛΌΓΟΙ|ΕΠΕΙΓΟΝΤΟΛΌΓΟΙ,"2421351000, 2421094200",info@ghv.gr,https://www.ghv.gr/,31/12/2023,22/04/2026,1,
EL_GR080,ΓΕΝΙΚΟ ΝΟΣΟΚΟΜΕΙΟ ΤΡΙΚΑΛΩΝ,,39.546774,21.77229,,,42100,ΤΡΙΚΑΛΑ,ΚΑΡΔΙΤΣΗΣ 56,EL,YES,,,,ΓΕΝΙΚΑ ΝΟΣΟΚΟΜΕΙΑ,PUBLIC,ΑΚΤΙΝΟΔΙΑΓΝΩΣΤΈΣ (ΑΚΤΙΝ. - ΡΑΔ.)|ΑΝΑΙΣΘΗΣΙΟΛΌΓΟΙ|ΓΑΣΤΡΕΝΤΕΡΟΛΌΓΟΙ|ΓΕΝΙΚΉΣ ΙΑΤΡΙΚΉΣ|ΚΑΡΔΙΟΛΌΓΟΙ|ΚΥΤΤΑΡΟΛΌΓΟΙ|ΜΑΙΕΥΤΉΡΕΣ - ΓΥΝΑΙΚΟΛΌΓΟΙ|ΜΙΚΡΟΒΙΟΛΌΓΟΙ|ΝΕΥΡΟΛΌΓΟΙ|ΟΡΘΟΠΕΔΙΚΟΊ|ΟΥΡΟΛΌΓΟΙ|ΟΦΘΑΛΜΊΑΤΡΟΙ|ΠΑΘΟΛΌΓΟΙ|ΠΑΙΔΊΑΤΡΟΙ|ΦΥΜΑΤΙΟΛΌΓΟΙ - ΠΝΕΥΜΟΝΟΛΌΓΟΙ|ΧΕΙΡΟΥΡΓΟΊ ΓΕΝΙΚΉΣ ΧΕΙΡΟΥΡΓΙΚΉΣ|ΨΥΧΊΑΤΡΟΙ|ΩΤΟΡΙΝΟΛΑΡΥΓΓΟΛΌΓΟΙ|ΟΓΚΟΛΌΓΟΙ|ΕΝΤΑΤΙΚΟΛΌΓΟΙ,2431350100,gnntrika@otenet.gr,http://trikalahospital.gr/,31/12/2023,22/04/2026,1,
EL_GR081,ΓΕΝΙΚΟ ΝΟΣ/ΜΕΙΟ ΓΡΕΒΕΝΩΝ,,40.088209,21.43703,,,51100,ΓΡΕΒΕΝΑ,ΠΕΡ.ΣΤΡΑΤΟΠΕΔΟΥ,EL,YES,,,,ΓΕΝΙΚΑ ΝΟΣΟΚΟΜΕΙΑ,PUBLIC,ΑΙΜΑΤΟΛΌΓΟΙ|ΑΚΤΙΝΟΔΙΑΓΝΩΣΤΈΣ (ΑΚΤΙΝ. - ΡΑΔ.)|ΑΝΑΙΣΘΗΣΙΟΛΌΓΟΙ|ΓΕΝΙΚΉΣ ΙΑΤΡΙΚΉΣ|ΔΕΡΜΑΤΟΛΌΓΟΙ - ΑΦΡΟΔΙΣΙΟΛΌΓΟΙ||ΜΑΙΕΥΤΉΡΕΣ - ΓΥΝΑΙΚΟΛΌΓΟΙ|ΜΙΚΡΟΒΙΟΛΌΓΟΙ|ΝΕΦΡΟΛΌΓΟΙ|ΟΡΘΟΠΕΔΙΚΟΊ|ΟΥΡΟΛΌΓΟΙ|ΟΦΘΑΛΜΊΑΤΡΟΙ|ΠΑΘΟΛΌΓΟΙ|ΠΑΙΔΊΑΤΡΟΙ|ΦΥΜΑΤΙΟΛΌΓΟΙ - ΠΝΕΥΜΟΝΟΛΌΓΟΙ|ΧΕΙΡΟΥΡΓΟΊ ΓΕΝΙΚΉΣ ΧΕΙΡΟΥΡΓΙΚΉΣ|ΩΤΟΡΙΝΟΛΑΡΥΓΓΟΛΌΓΟΙ|ΕΠΕΙΓΟΝΤΟΛΌΓΟΙ,2462350100,proto@nosgrevenon.gr,http://www.nosgrevenon.gr/,31/12/2023,22/04/2026,1,
EL_GR082,ΓΕΝΙΚΟ ΝΟΣΟΚΟΜΕΙΟΝ ΔΡΑΜΑΣ,,41.158853,24.14886,,,66100,ΔΡΑΜΑ,ΤΕΡΜΑ ΙΠΠΟΚΡΑΤΟΥΣ,EL,YES,,,,ΓΕΝΙΚΑ ΝΟΣΟΚΟΜΕΙΑ,PUBLIC,ΑΙΜΑΤΟΛΌΓΟΙ|ΑΚΤΙΝΟΔΙΑΓΝΩΣΤΈΣ (ΑΚΤΙΝ. - ΡΑΔ.)|ΑΝΑΙΣΘΗΣΙΟΛΌΓΟΙ|ΓΑΣΤΡΕΝΤΕΡΟΛΌΓΟΙ|ΓΕΝΙΚΉΣ ΙΑΤΡΙΚΉΣ|ΔΕΡΜΑΤΟΛΌΓΟΙ - ΑΦΡΟΔΙΣΙΟΛΌΓΟΙ|ΜΑΙΕΥΤΉΡΕΣ - ΓΥΝΑΙΚΟΛΌΓΟΙ|ΜΙΚΡΟΒΙΟΛΌΓΟΙ|ΝΕΥΡΟΛΌΓΟΙ|ΝΕΦΡΟΛΌΓΟΙ|ΟΔΟΝΤΊΑΤΡΟΙ|ΟΡΘΟΠΕΔΙΚΟΊ|ΟΥΡΟΛΌΓΟΙ|ΟΦΘΑΛΜΊΑΤΡΟΙ|ΠΑΘΟΛΌΓΟΙ|ΠΑΙΔΊΑΤΡΟΙ|ΦΥΜΑΤΙΟΛΌΓΟΙ - ΠΝΕΥΜΟΝΟΛΌΓΟΙ|ΧΕΙΡΟΥΡΓΟΊ ΓΕΝΙΚΉΣ ΧΕΙΡΟΥΡΓΙΚΉΣ|ΨΥΧΊΑΤΡΟΙ|ΩΤΟΡΙΝΟΛΑΡΥΓΓΟΛΌΓΟΙ|ΕΝΤΑΤΙΚΟΛΌΓΟΙ|ΕΠΕΙΓΟΝΤΟΛΌΓΟΙ,2521350400,info@dramahospital.gr,http://www.dramahospital.gr/,31/12/2023,22/04/2026,1,
EL_GR083,ΓΕΝΙΚΟ ΝΟΣΟΚΟΜΕΙΟ ΒΕΡΟΙΑΣ,,40.503298,22.21631,,,59100,ΒΕΡΟΙΑ,ΣΥΝΟΙΚΙΣΜΟΣ ΠΑΠΑΓΟΥ,EL,YES,,,,ΓΕΝΙΚΑ ΝΟΣΟΚΟΜΕΙΑ,PUBLIC,ΑΙΜΑΤΟΛΌΓΟΙ|ΑΚΤΙΝΟΔΙΑΓΝΩΣΤΈΣ (ΑΚΤΙΝ. - ΡΑΔ.)|ΑΝΑΙΣΘΗΣΙΟΛΌΓΟΙ|ΓΕΝΙΚΉΣ ΙΑΤΡΙΚΉΣ|ΔΕΡΜΑΤΟΛΌΓΟΙ - ΑΦΡΟΔΙΣΙΟΛΌΓΟΙ|ΙΑΤΡΙΚΉΣ ΤΗΣ ΕΡΓΑΣΊΑΣ||ΜΑΙΕΥΤΉΡΕΣ - ΓΥΝΑΙΚΟΛΌΓΟΙ|ΜΙΚΡΟΒΙΟΛΌΓΟΙ|ΝΕΥΡΟΛΌΓΟΙ|ΝΕΦΡΟΛΌΓΟΙ|ΟΔΟΝΤΊΑΤΡΟΙ|ΟΡΘΟΠΕΔΙΚΟΊ|ΟΥΡΟΛΌΓΟΙ|ΟΦΘΑΛΜΊΑΤΡΟΙ|ΠΑΘΟΛΟΓΟΑΝΑΤΌΜΟΙ|ΠΑΘΟΛΌΓΟΙ|ΠΑΙΔΊΑΤΡΟΙ|ΠΑΙΔΟΨΥΧΊΑΤΡΟΙ|ΦΥΜΑΤΙΟΛΌΓΟΙ - ΠΝΕΥΜΟΝΟΛΌΓΟΙ|ΧΕΙΡΟΥΡΓΟΊ ΓΕΝΙΚΉΣ ΧΕΙΡΟΥΡΓΙΚΉΣ|ΨΥΧΊΑΤΡΟΙ|ΩΤΟΡΙΝΟΛΑΡΥΓΓΟΛΌΓΟΙ|ΟΓΚΟΛΌΓΟΙ|ΕΝΤΑΤΙΚΟΛΌΓΟΙ,2331351100,gram1@verhospi.gr,http://www.verhospi.gr/,31/12/2023,22/04/2026,1,
EL_GR084,ΓΕΝΙΚΟ ΝΟΣΟΚΟΜΕΙΟ ΝΑΟΥΣΑΣ,,40.627848,22.0735,,,59200,ΝΑΟΥΣΑ,Φ.ΠΕΧΛΙΒΑΝΟΥ 3,EL,YES,,,,ΓΕΝΙΚΑ ΝΟΣΟΚΟΜΕΙΑ,PUBLIC,ΑΚΤΙΝΟΔΙΑΓΝΩΣΤΈΣ (ΑΚΤΙΝ. - ΡΑΔ.)|ΑΝΑΙΣΘΗΣΙΟΛΌΓΟΙ|ΓΕΝΙΚΉΣ ΙΑΤΡΙΚΉΣ.ΙΑΤΡΙΚΉΣ ΤΗΣ ΕΡΓΑΣΊΑΣ||ΜΑΙΕΥΤΉΡΕΣ - ΓΥΝΑΙΚΟΛΌΓΟΙ|ΜΙΚΡΟΒΙΟΛΌΓΟΙ|ΝΕΦΡΟΛΌΓΟΙ|ΟΡΘΟΠΕΔΙΚΟΊ|ΟΥΡΟΛΌΓΟΙ|ΟΦΘΑΛΜΊΑΤΡΟΙ|ΠΑΘΟΛΌΓΟΙ|ΠΑΙΔΊΑΤΡΟΙ|ΦΥΜΑΤΙΟΛΌΓΟΙ - ΠΝΕΥΜΟΝΟΛΌΓΟΙ|ΦΥΣΙΚΉΣ ΙΑΤΡΙΚΉΣ ΚΑΙ ΑΠΟΚΑΤΆΣΤΑΣΗΣ|ΧΕΙΡΟΥΡΓΟΊ ΓΕΝΙΚΉΣ ΧΕΙΡΟΥΡΓΙΚΉΣ|ΕΝΤΑΤΙΚΟΛΌΓΟΙ, 2332350247 & 2332059248,grammateia@gnnaousas.gr,https://gnnaousas.gr/,31/12/2023,22/04/2026,1,
EL_GR085,424 ΓΕΝ.ΣΤΡΑΤ.ΝΟΣΟΚ.ΕΚΠΑΙΔΕΥΣΕΩΣ,,40.673013,22.96375,,,54638,ΕΥΚΑΡΠΙΑ ΘΕΣΣΑΛΟΝΙΚΗΣ,ΓΡΗΓ.ΛΑΜΠΡΑΚΗ 3,EL,,,,,ΓΕΝΙΚΑ ΝΟΣΟΚΟΜΕΙΑ,PUBLIC,ΑΙΜΑΤΟΛΌΓΟΙ|ΑΚΤΙΝΟΔΙΑΓΝΩΣΤΈΣ (ΑΚΤΙΝ. - ΡΑΔ.)|ΑΝΑΙΣΘΗΣΙΟΛΌΓΟΙ|ΓΕΝΙΚΉΣ ΙΑΤΡΙΚΉΣ|ΔΕΡΜΑΤΟΛΌΓΟΙ - ΑΦΡΟΔΙΣΙΟΛΌΓΟΙ||ΜΑΙΕΥΤΉΡΕΣ - ΓΥΝΑΙΚΟΛΌΓΟΙ|ΜΙΚΡΟΒΙΟΛΌΓΟΙ|ΝΕΦΡΟΛΌΓΟΙ|ΟΡΘΟΠΕΔΙΚΟΊ|ΟΥΡΟΛΌΓΟΙ|ΟΦΘΑΛΜΊΑΤΡΟΙ|ΠΑΘΟΛΌΓΟΙ|ΠΑΙΔΊΑΤΡΟΙ|ΦΥΜΑΤΙΟΛΌΓΟΙ - ΠΝΕΥΜΟΝΟΛΌΓΟΙ|ΦΥΣΙΚΉΣ ΙΑΤΡΙΚΉΣ ΚΑΙ ΑΠΟΚΑΤΆΣΤΑΣΗΣ|ΧΕΙΡΟΥΡΓΟΊ ΓΕΝΙΚΉΣ ΧΕΙΡΟΥΡΓΙΚΉΣ|ΨΥΧΊΑΤΡΟΙ|ΕΝΤΑΤΙΚΟΛΌΓΟΙ|ΕΠΕΙΓΟΝΤΟΛΌΓΟΙ,2310381000,,https://424gsne.army.gr/,31/12/2023,22/04/2026,1,
EL_GR093,ΓΕΝΙΚΟ ΝΟΣΟΚΟΜΕΙΟ ΘΕΣ/ΝΙΚΗΣ Γ. ΠΑΠΑΝΙΚΟΛΑΟΥ,,40.630657,23.04524,,,57010,ΕΞΟΧΗ,ΛΕΩΦ. Γ.ΠΑΠΑΝΙΚΟΛΑΟΥ,EL,YES,,,,ΓΕΝΙΚΑ ΝΟΣΟΚΟΜΕΙΑ,PUBLIC,ΑΚΤΙΝΟΔΙΑΓΝΩΣΤΈΣ (ΑΚΤΙΝ. - ΡΑΔ.)|ΑΝΑΙΣΘΗΣΙΟΛΌΓΟΙ|ΓΕΝΙΚΉΣ ΙΑΤΡΙΚΉΣ||ΜΑΙΕΥΤΉΡΕΣ - ΓΥΝΑΙΚΟΛΌΓΟΙ|ΜΙΚΡΟΒΙΟΛΌΓΟΙ|ΝΕΦΡΟΛΌΓΟΙ|ΟΡΘΟΠΕΔΙΚΟΊ|ΟΥΡΟΛΌΓΟΙ|ΠΑΘΟΛΌΓΟΙ|ΠΑΙΔΊΑΤΡΟΙ|ΠΑΙΔΟΨΥΧΊΑΤΡΟΙ|ΦΥΜΑΤΙΟΛΌΓΟΙ - ΠΝΕΥΜΟΝΟΛΌΓΟΙ|ΧΕΙΡΟΥΡΓΟΊ ΓΕΝΙΚΉΣ ΧΕΙΡΟΥΡΓΙΚΉΣ|ΨΥΧΊΑΤΡΟΙ,2313307000,grafeio.politin3.syzefxis.gov.gr,http://www.gpapanikolaou.gr/,31/12/2023,22/04/2026,1,
EL_GR086,ΓΕΝΙΚΟ ΝΟΣΟΚΟΜΕΙΟ ΑΓΙΟΣ ΠΑΥΛΟΣ,,40.577705,22.96977,,,56123,ΘΕΣΣΑΛΟΝΙΚΗ,ΕΘΝΙΚΗΣ ΑΝΤΙΣΤΑΣΗΣ 161,EL,YES,,,,ΓΕΝΙΚΑ ΝΟΣΟΚΟΜΕΙΑ,PUBLIC,ΑΙΜΑΤΟΛΌΓΟΙ|ΑΚΤΙΝΟΘΕΡΑΠΕΥΤΈΣ|ΑΚΤΙΝΟΔΙΑΓΝΩΣΤΈΣ (ΑΚΤΙΝ. - ΡΑΔ.)|ΑΝΑΙΣΘΗΣΙΟΛΌΓΟΙ|ΓΑΣΤΡΕΝΤΕΡΟΛΌΓΟΙ|ΓΕΝΙΚΉΣ ΙΑΤΡΙΚΉΣ|ΔΕΡΜΑΤΟΛΌΓΟΙ - ΑΦΡΟΔΙΣΙΟΛΌΓΟΙ|ΙΑΤΡΙΚΉΣ ΤΗΣ ΕΡΓΑΣΊΑΣ|ΙΑΤΡΟΔΙΚΑΣΤΈΣ|ΚΑΡΔΙΟΛΌΓΟΙ|ΚΥΤΤΑΡΟΛΌΓΟΙ|ΜΑΙΕΥΤΉΡΕΣ - ΓΥΝΑΙΚΟΛΌΓΟΙ|ΜΙΚΡΟΒΙΟΛΌΓΟΙ|ΝΕΥΡΟΛΌΓΟΙ|ΝΕΥΡΟΧΕΙΡΟΥΡΓΟΊ|ΝΕΦΡΟΛΌΓΟΙ|ΟΔΟΝΤΊΑΤΡΟΙ|ΟΡΘΟΠΕΔΙΚΟΊ|ΟΥΡΟΛΌΓΟΙ|ΟΦΘΑΛΜΊΑΤΡΟΙ|ΠΑΘΟΛΟΓΟΑΝΑΤΌΜΟΙ|ΠΑΘΟΛΌΓΟΙ|ΠΑΙΔΊΑΤΡΟΙ|ΠΑΙΔΟΨΥΧΊΑΤΡΟΙ|ΠΥΡΗΝΙΚΉΣ ΙΑΤΡΙΚΉΣ|ΡΕΥΜΑΤΟΛΌΓΟΙ|ΦΥΜΑΤΙΟΛΌΓΟΙ - ΠΝΕΥΜΟΝΟΛΌΓΟΙ|ΦΥΣΙΚΉΣ ΙΑΤΡΙΚΉΣ ΚΑΙ ΑΠΟΚΑΤΆΣΤΑΣΗΣ|ΧΕΙΡΟΥΡΓΟΊ ΓΕΝΙΚΉΣ ΧΕΙΡΟΥΡΓΙΚΉΣ|ΧΕΙΡΟΥΡΓΟΊ ΘΏΡΑΚΑ|ΧΕΙΡΟΥΡΓΟΊ ΠΑΊΔΩΝ|ΧΕΙΡΟΥΡΓΟΊ ΠΛΑΣΤΙΚΉΣ ΧΕΙΡΟΥΡΓΙΚΉΣ|ΨΥΧΊΑΤΡΟΙ|ΩΤΟΡΙΝΟΛΑΡΥΓΓΟΛΌΓΟΙ|ΑΓΓΕΙΟΧΕΙΡΟΥΡΓΟΊ|ΓΝΑΘΟΧΕΙΡΟΥΡΓΟΊ|ΟΓΚΟΛΌΓΟΙ|ΕΝΤΑΤΙΚΟΛΌΓΟΙ|ΕΠΕΙΓΟΝΤΟΛΌΓΟΙ,2313304400,info@agpavlos.gr,http://www.agpavlos.gr/,31/12/2023,22/04/2026,1,
EL_GR087,ΓΕΝΙΚΟ ΝΟΣΟΚΟΜΕΙΟ ΘΕΣ/ΝΙΚΗΣ ΑΧΕΠΑ,,40.629349,22.96032,,,54636,ΘΕΣΣΑΛΟΝΙΚΗ,ΣΤ.ΚΥΡΙΑΚΙΔΗ 1,EL,YES,,,,ΓΕΝΙΚΑ ΝΟΣΟΚΟΜΕΙΑ,PUBLIC,ΑΙΜΑΤΟΛΌΓΟΙ|ΑΚΤΙΝΟΔΙΑΓΝΩΣΤΈΣ (ΑΚΤΙΝ. - ΡΑΔ.)|ΑΝΑΙΣΘΗΣΙΟΛΌΓΟΙ|ΓΕΝΙΚΉΣ ΙΑΤΡΙΚΉΣ||ΜΑΙΕΥΤΉΡΕΣ - ΓΥΝΑΙΚΟΛΌΓΟΙ|ΜΙΚΡΟΒΙΟΛΌΓΟΙ|ΝΕΦΡΟΛΌΓΟΙ|ΟΡΘΟΠΕΔΙΚΟΊ|ΟΥΡΟΛΌΓΟΙ|ΟΦΘΑΛΜΊΑΤΡΟΙ|ΠΑΘΟΛΌΓΟΙ|ΠΑΙΔΊΑΤΡΟΙ|ΦΥΜΑΤΙΟΛΌΓΟΙ - ΠΝΕΥΜΟΝΟΛΌΓΟΙ|ΧΕΙΡΟΥΡΓΟΊ ΓΕΝΙΚΉΣ ΧΕΙΡΟΥΡΓΙΚΉΣ|ΩΤΟΡΙΝΟΛΑΡΥΓΓΟΛΌΓΟΙ,2313303110,ahepahos@n3.syzefxis.gov.gr,http://www.ahepahosp.gr/,31/12/2023,22/04/2026,1,
EL_GR088,ΓΕΝΙΚΟ ΝΟΣΟΚΟΜΕΙΟ ΘΕΣ/ΝΙΚΗΣ Γ.ΓΕΝΝΗΜΑΤΑΣ,,40.634215,22.95572,,,56431,ΘΕΣΣΑΛΟΝΙΚΗ,ΕΘΝΙΚΗΣ ΑΜΥΝΑΣ 41,EL,YES,,,,ΓΕΝΙΚΑ ΝΟΣΟΚΟΜΕΙΑ,PUBLIC,ΑΙΜΑΤΟΛΌΓΟΙ|ΑΚΤΙΝΟΔΙΑΓΝΩΣΤΈΣ (ΑΚΤΙΝ. - ΡΑΔ.)|ΑΝΑΙΣΘΗΣΙΟΛΌΓΟΙ|ΓΕΝΙΚΉΣ ΙΑΤΡΙΚΉΣ|ΔΕΡΜΑΤΟΛΌΓΟΙ - ΑΦΡΟΔΙΣΙΟΛΌΓΟΙ||ΜΑΙΕΥΤΉΡΕΣ - ΓΥΝΑΙΚΟΛΌΓΟΙ|ΜΙΚΡΟΒΙΟΛΌΓΟΙ|ΝΕΥΡΟΛΌΓΟΙ|ΝΕΦΡΟΛΌΓΟΙ|ΟΔΟΝΤΊΑΤΡΟΙ|ΟΡΘΟΠΕΔΙΚΟΊ|ΟΥΡΟΛΌΓΟΙ|ΟΦΘΑΛΜΊΑΤΡΟΙ|ΠΑΘΟΛΟΓΟΑΝΑΤΌΜΟΙ|ΠΑΘΟΛΌΓΟΙ|ΠΑΙΔΊΑΤΡΟΙ|ΦΥΜΑΤΙΟΛΌΓΟΙ - ΠΝΕΥΜΟΝΟΛΌΓΟΙ|ΧΕΙΡΟΥΡΓΟΊ ΓΕΝΙΚΉΣ ΧΕΙΡΟΥΡΓΙΚΉΣ|ΨΥΧΊΑΤΡΟΙ|ΕΝΤΑΤΙΚΟΛΌΓΟΙ|ΕΠΕΙΓΟΝΤΟΛΌΓΟΙ,2313308100,info@gennimatas-thess.gr,http://www.gennimatas-thess.gr/,31/12/2023,22/04/2026,1,
EL_GR089,ΓΕΝΙΚΟ ΝΟΣΟΚΟΜΕΙΟ ΘΕΣ/ΝΙΚΗΣ ΑΓΙΟΣ ΔΗΜΗΤΡΙΟΣ,,40.637312,22.95868,,,56532,ΘΕΣΣΑΛΟΝΙΚΗ,ΕΛ.ΖΩΓΡΑΦΟΥ2,EL,YES,,,,ΓΕΝΙΚΑ ΝΟΣΟΚΟΜΕΙΑ,PUBLIC,ΑΙΜΑΤΟΛΌΓΟΙ|ΑΚΤΙΝΟΔΙΑΓΝΩΣΤΈΣ (ΑΚΤΙΝ. - ΡΑΔ.)|ΑΝΑΙΣΘΗΣΙΟΛΌΓΟΙ|ΓΑΣΤΡΕΝΤΕΡΟΛΌΓΟΙ|ΓΕΝΙΚΉΣ ΙΑΤΡΙΚΉΣ|ΔΕΡΜΑΤΟΛΌΓΟΙ - ΑΦΡΟΔΙΣΙΟΛΌΓΟΙ|ΜΑΙΕΥΤΉΡΕΣ - ΓΥΝΑΙΚΟΛΌΓΟΙ|ΜΙΚΡΟΒΙΟΛΌΓΟΙ|ΝΕΥΡΟΛΌΓΟΙ|ΝΕΦΡΟΛΌΓΟΙ|ΟΔΟΝΤΊΑΤΡΟΙ|ΟΡΘΟΠΕΔΙΚΟΊ|ΟΥΡΟΛΌΓΟΙ|ΟΦΘΑΛΜΊΑΤΡΟΙ|ΠΑΘΟΛΌΓΟΙ|ΠΑΙΔΊΑΤΡΟΙ|ΠΑΙΔΟΨΥΧΊΑΤΡΟΙ|ΦΥΜΑΤΙΟΛΌΓΟΙ - ΠΝΕΥΜΟΝΟΛΌΓΟΙ|ΧΕΙΡΟΥΡΓΟΊ ΓΕΝΙΚΉΣ ΧΕΙΡΟΥΡΓΙΚΉΣ|ΨΥΧΊΑΤΡΟΙ|ΩΤΟΡΙΝΟΛΑΡΥΓΓΟΛΌΓΟΙ,2313322100,plirof@oagiosdimitrios.gr,http://www.oagiosdimitrios.gr/,31/12/2023,22/04/2026,1,
EL_GR090,ΓΕΝΙΚΟ ΝΟΣΟΚΟΜΕΙΟ ΘΕΣ/ΝΙΚΗΣ ΙΠΠΟΚΡΑΤΕΙΟ,,40.612661,22.96243,,,54642,ΘΕΣΣΑΛΟΝΙΚΗ,ΚΩΝΣΤΑΝΤΙΝΟΥΠΟΛΕΩΣ 49,EL,YES,,,,ΓΕΝΙΚΑ ΝΟΣΟΚΟΜΕΙΑ,PUBLIC,ΑΙΜΑΤΟΛΌΓΟΙ|ΑΚΤΙΝΟΔΙΑΓΝΩΣΤΈΣ (ΑΚΤΙΝ. - ΡΑΔ.)|ΑΝΑΙΣΘΗΣΙΟΛΌΓΟΙ|ΓΑΣΤΡΕΝΤΕΡΟΛΌΓΟΙ|ΓΕΝΙΚΉΣ ΙΑΤΡΙΚΉΣ|ΔΕΡΜΑΤΟΛΌΓΟΙ - ΑΦΡΟΔΙΣΙΟΛΌΓΟΙ|ΜΑΙΕΥΤΉΡΕΣ - ΓΥΝΑΙΚΟΛΌΓΟΙ|ΜΙΚΡΟΒΙΟΛΌΓΟΙ|ΝΕΥΡΟΛΌΓΟΙ|ΝΕΥΡΟΧΕΙΡΟΥΡΓΟΊ|ΝΕΦΡΟΛΌΓΟΙ|ΟΔΟΝΤΊΑΤΡΟΙ|ΟΡΘΟΠΕΔΙΚΟΊ|ΟΥΡΟΛΌΓΟΙ|ΟΦΘΑΛΜΊΑΤΡΟΙ|ΠΑΘΟΛΟΓΟΑΝΑΤΌΜΟΙ|ΠΑΘΟΛΌΓΟΙ|ΠΑΙΔΊΑΤΡΟΙ|ΦΥΜΑΤΙΟΛΌΓΟΙ - ΠΝΕΥΜΟΝΟΛΌΓΟΙ|ΧΕΙΡΟΥΡΓΟΊ ΓΕΝΙΚΉΣ ΧΕΙΡΟΥΡΓΙΚΉΣ|ΧΕΙΡΟΥΡΓΟΊ ΘΏΡΑΚΑ|ΧΕΙΡΟΥΡΓΟΊ ΠΑΊΔΩΝ|ΨΥΧΊΑΤΡΟΙ|ΩΤΟΡΙΝΟΛΑΡΥΓΓΟΛΌΓΟΙ|ΑΓΓΕΙΟΧΕΙΡΟΥΡΓΟΊ|ΟΓΚΟΛΌΓΟΙ|ΕΝΤΑΤΙΚΟΛΌΓΟΙ|ΕΠΕΙΓΟΝΤΟΛΌΓΟΙ,2310892000,admin@ippokratio.gr,http://www.ippokratio.gr/,31/12/2023,22/04/2026,1,
EL_GR091,ΨΥΧΙΑΤΡΙΚΟ ΝΟΣΟΚ.ΘΕΣ/ΝΙΚΗΣ,,40.666421,22.93746,,,54641,ΘΕΣΣΑΛΟΝΙΚΗ,ΛΑΓΚΑΔΑ 196,EL,YES,,,,ΝΕΥΡΟΨΥΧΙΑΤΡΙΚΑ,PUBLIC,ΑΙΜΑΤΟΛΌΓΟΙ|ΑΚΤΙΝΟΔΙΑΓΝΩΣΤΈΣ (ΑΚΤΙΝ. - ΡΑΔ.)|ΑΝΑΙΣΘΗΣΙΟΛΌΓΟΙ|ΓΕΝΙΚΉΣ ΙΑΤΡΙΚΉΣ|ΚΑΡΔΙΟΛΌΓΟΙ|ΜΑΙΕΥΤΉΡΕΣ - ΓΥΝΑΙΚΟΛΌΓΟΙ|ΜΙΚΡΟΒΙΟΛΌΓΟΙ|ΝΕΦΡΟΛΌΓΟΙ|ΟΡΘΟΠΕΔΙΚΟΊ|ΟΥΡΟΛΌΓΟΙ|ΟΦΘΑΛΜΊΑΤΡΟΙ|ΧΕΙΡΟΥΡΓΟΊ ΓΕΝΙΚΉΣ ΧΕΙΡΟΥΡΓΙΚΉΣ|ΩΤΟΡΙΝΟΛΑΡΥΓΓΟΛΌΓΟΙ|ΟΓΚΟΛΌΓΟΙ,2313324100,poliths@psychothes.gr,http://www.psychothes.gr/,31/12/2023,22/04/2026,1,
EL_GR092,ΑΝΤΙΚΑΡΚΙΝΙΚΟ ΝΟΣΟΚΟΜΕΙΟ ΘΕΣ/ΝΙΚΗΣ ΘΕΑΓΕΝΕΙΟ,,40.617970,22.95996,,,54007,ΘΕΣΣΑΛΟΝΙΚΗ,ΑΛ.ΣΥΜΕΩΝΙΔΟΥ2,EL,YES,,,,ΑΝΤΙΚΑΡΚΙΝΙΚΑ,PUBLIC,ΑΚΤΙΝΟΔΙΑΓΝΩΣΤΈΣ (ΑΚΤΙΝ. - ΡΑΔ.)|ΑΝΑΙΣΘΗΣΙΟΛΌΓΟΙ|ΓΕΝΙΚΉΣ ΙΑΤΡΙΚΉΣ||ΜΑΙΕΥΤΉΡΕΣ - ΓΥΝΑΙΚΟΛΌΓΟΙ|ΜΙΚΡΟΒΙΟΛΌΓΟΙ|ΝΕΦΡΟΛΌΓΟΙ|ΟΔΟΝΤΊΑΤΡΟΙ|ΟΡΘΟΠΕΔΙΚΟΊ|ΟΥΡΟΛΌΓΟΙ|ΟΦΘΑΛΜΊΑΤΡΟΙ|ΠΑΘΟΛΌΓΟΙ|ΠΑΙΔΊΑΤΡΟΙ|ΦΥΜΑΤΙΟΛΌΓΟΙ - ΠΝΕΥΜΟΝΟΛΌΓΟΙ|ΧΕΙΡΟΥΡΓΟΊ ΓΕΝΙΚΉΣ ΧΕΙΡΟΥΡΓΙΚΉΣ|ΨΥΧΊΑΤΡΟΙ|ΩΤΟΡΙΝΟΛΑΡΥΓΓΟΛΌΓΟΙ,3213301111,theagenio@otenet.gr,http://www.theageneio.gov.gr/,31/12/2023,22/04/2026,1,
EL_GR131,ΓΕΝΙΚΟ ΝΟΣΟΚΟΜΕΙΟ ΧΑΝΙΩΝ Ο ΑΓΙΟΣ ΓΕΩΡΓΙΟΣ,,35.478420,24.0156,,,73300,ΧΑΝΙΑ,ΑΓΙΟΥ ΕΛΕΥΘΕΡΙΟΥ 28,EL,YES,,,,ΓΕΝΙΚΑ ΝΟΣΟΚΟΜΕΙΑ,PUBLIC,,2821342000,info@chaniahospital.gr,http://www.chaniahospital.gr/,31/12/2023,22/04/2026,1,
EL_GR095,ΓΕΝΙΚΟ ΝΟΣΟΚΟΜΕΙΟ ΚΑΒΑΛΑΣ,,40.938637,24.37831,,,65500,ΚΑΒΑΛΑ,ΑΓΙΟΥ ΣΥΛΛΑ,EL,YES,,,,ΓΕΝΙΚΑ ΝΟΣΟΚΟΜΕΙΑ,PUBLIC,ΑΚΤΙΝΟΔΙΑΓΝΩΣΤΈΣ (ΑΚΤΙΝ. - ΡΑΔ.)|ΑΝΑΙΣΘΗΣΙΟΛΌΓΟΙ|ΓΕΝΙΚΉΣ ΙΑΤΡΙΚΉΣ|ΔΕΡΜΑΤΟΛΌΓΟΙ - ΑΦΡΟΔΙΣΙΟΛΌΓΟΙ|ΜΑΙΕΥΤΉΡΕΣ - ΓΥΝΑΙΚΟΛΌΓΟΙ|ΜΙΚΡΟΒΙΟΛΌΓΟΙ|ΝΕΦΡΟΛΌΓΟΙ|ΟΔΟΝΤΊΑΤΡΟΙ|ΟΡΘΟΠΕΔΙΚΟΊ|ΟΥΡΟΛΌΓΟΙ|ΟΦΘΑΛΜΊΑΤΡΟΙ|ΠΑΘΟΛΟΓΟΑΝΑΤΌΜΟΙ|ΠΑΘΟΛΌΓΟΙ|ΠΑΙΔΊΑΤΡΟΙ|ΠΑΙΔΟΨΥΧΊΑΤΡΟΙ|ΦΥΜΑΤΙΟΛΌΓΟΙ - ΠΝΕΥΜΟΝΟΛΌΓΟΙ|ΦΥΣΙΚΉΣ ΙΑΤΡΙΚΉΣ ΚΑΙ ΑΠΟΚΑΤΆΣΤΑΣΗΣ|ΧΕΙΡΟΥΡΓΟΊ ΓΕΝΙΚΉΣ ΧΕΙΡΟΥΡΓΙΚΉΣ|ΩΤΟΡΙΝΟΛΑΡΥΓΓΟΛΌΓΟΙ,2513501100,pk@kavalahospital.gr,http://www.kavalahospital.gr/,31/12/2023,22/04/2026,1,
EL_GR096,ΓΕΝΙΚΟ ΝΟΣΟΚOMEIO ΚΑΣΤΟΡΙΑΣ,,40.504893,21.28088,,,52100,ΚΑΣΤΟΡΙΑ,ΜΑΥΡΙΩΤΙΣΗΣ 33,EL,YES,,,,ΓΕΝΙΚΑ ΝΟΣΟΚΟΜΕΙΑ,PUBLIC,ΑΚΤΙΝΟΔΙΑΓΝΩΣΤΈΣ (ΑΚΤΙΝ. - ΡΑΔ.)|ΑΝΑΙΣΘΗΣΙΟΛΌΓΟΙ|ΓΕΝΙΚΉΣ ΙΑΤΡΙΚΉΣ|ΚΑΡΔΙΟΛΌΓΟΙ|ΜΙΚΡΟΒΙΟΛΌΓΟΙ|ΝΕΥΡΟΛΌΓΟΙ|ΝΕΦΡΟΛΌΓΟΙ|ΟΔΟΝΤΊΑΤΡΟΙ|ΟΡΘΟΠΕΔΙΚΟΊ|ΟΦΘΑΛΜΊΑΤΡΟΙ|ΠΑΘΟΛΌΓΟΙ|ΠΑΙΔΊΑΤΡΟΙ|ΧΕΙΡΟΥΡΓΟΊ ΓΕΝΙΚΉΣ ΧΕΙΡΟΥΡΓΙΚΉΣ|ΩΤΟΡΙΝΟΛΑΡΥΓΓΟΛΌΓΟΙ,2467350600,protokolo@kastoriahospital.gr,http://www.kastoriahospital.gr/,31/12/2023,22/04/2026,1,
EL_GR097,ΓΕΝΙΚΟ ΝΟΣΟΚ.ΚΙΛΚΙΣ,,40.990442,22.86717,,,61100,ΚΙΛΚΙΣ,ΝΟΣΟΚΟΜΕΙΟΥ 1,EL,YES,,,,ΓΕΝΙΚΑ ΝΟΣΟΚΟΜΕΙΑ,PUBLIC,ΑΚΤΙΝΟΘΕΡΑΠΕΥΤΈΣ|ΑΚΤΙΝΟΔΙΑΓΝΩΣΤΈΣ (ΑΚΤΙΝ. - ΡΑΔ.)|ΑΝΑΙΣΘΗΣΙΟΛΌΓΟΙ|ΓΕΝΙΚΉΣ ΙΑΤΡΙΚΉΣ|ΚΥΤΤΑΡΟΛΌΓΟΙ|ΜΑΙΕΥΤΉΡΕΣ - ΓΥΝΑΙΚΟΛΌΓΟΙ|ΝΕΥΡΟΛΌΓΟΙ|ΝΕΦΡΟΛΌΓΟΙ|ΟΔΟΝΤΊΑΤΡΟΙ|ΟΡΘΟΠΕΔΙΚΟΊ|ΠΑΙΔΊΑΤΡΟΙ|ΧΕΙΡΟΥΡΓΟΊ ΓΕΝΙΚΉΣ ΧΕΙΡΟΥΡΓΙΚΉΣ|ΩΤΟΡΙΝΟΛΑΡΥΓΓΟΛΌΓΟΙ,2341351400,info@ghkilkis.gr,https://ghkilkis.gr/,31/12/2023,22/04/2026,1,
EL_GR098,ΓΕΝΙΚΟ ΝΟΣΟΚΟΜΕΙΟ -Κ.Υ ΓΟΥΜΕΝΙΣΣΑΣ,,40.947369,22.44559,,,61300,ΓΟΥΜΕΝΙΣΣΑ,ΜΑΥΡΟΠΟΥΛΟΥ 9,EL,YES,,,,ΓΕΝΙΚΑ ΝΟΣΟΚΟΜΕΙΑ,PUBLIC,ΑΙΜΑΤΟΛΌΓΟΙ|ΑΚΤΙΝΟΔΙΑΓΝΩΣΤΈΣ (ΑΚΤΙΝ. - ΡΑΔ.)|ΑΝΑΙΣΘΗΣΙΟΛΌΓΟΙ|ΓΑΣΤΡΕΝΤΕΡΟΛΌΓΟΙ|ΓΕΝΙΚΉΣ ΙΑΤΡΙΚΉΣ|ΔΕΡΜΑΤΟΛΌΓΟΙ - ΑΦΡΟΔΙΣΙΟΛΌΓΟΙ|ΚΑΡΔΙΟΛΌΓΟΙ|ΚΥΤΤΑΡΟΛΌΓΟΙ|ΜΑΙΕΥΤΉΡΕΣ - ΓΥΝΑΙΚΟΛΌΓΟΙ|ΜΙΚΡΟΒΙΟΛΌΓΟΙ|ΝΕΥΡΟΛΌΓΟΙ|ΝΕΥΡΟΧΕΙΡΟΥΡΓΟΊ|ΝΕΦΡΟΛΌΓΟΙ|ΟΔΟΝΤΊΑΤΡΟΙ|ΟΡΘΟΠΕΔΙΚΟΊ|ΟΥΡΟΛΌΓΟΙ|ΟΦΘΑΛΜΊΑΤΡΟΙ|ΠΑΘΟΛΟΓΟΑΝΑΤΌΜΟΙ|ΠΑΘΟΛΌΓΟΙ|ΠΑΙΔΊΑΤΡΟΙ|ΠΑΙΔΟΨΥΧΊΑΤΡΟΙ|ΦΥΜΑΤΙΟΛΌΓΟΙ - ΠΝΕΥΜΟΝΟΛΌΓΟΙ|ΧΕΙΡΟΥΡΓΟΊ ΓΕΝΙΚΉΣ ΧΕΙΡΟΥΡΓΙΚΉΣ|ΨΥΧΊΑΤΡΟΙ|ΩΤΟΡΙΝΟΛΑΡΥΓΓΟΛΌΓΟΙ|ΟΓΚΟΛΌΓΟΙ|ΕΝΤΑΤΙΚΟΛΌΓΟΙ|ΕΠΕΙΓΟΝΤΟΛΌΓΟΙ,2343350300,prosopiko@gngoum.gr,https://gngoum.gr/,31/12/2023,22/04/2026,1,
EL_GR099,ΝΟΜ.ΝΟΣΟΚ.ΚΟΖΑΝΗΣ ΜΑΜΑΤΣΕΙΟ,,40.307118,21.78624,,,50100,ΚΟΖΑΝΗ,Κ.ΜΑΜΑΤΣΙΟΥ 1,EL,YES,,,,ΓΕΝΙΚΑ ΝΟΣΟΚΟΜΕΙΑ,PUBLIC,ΑΚΤΙΝΟΔΙΑΓΝΩΣΤΈΣ (ΑΚΤΙΝ. - ΡΑΔ.)|ΑΝΑΙΣΘΗΣΙΟΛΌΓΟΙ|ΓΑΣΤΡΕΝΤΕΡΟΛΌΓΟΙ|ΓΕΝΙΚΉΣ ΙΑΤΡΙΚΉΣ|ΚΑΡΔΙΟΛΌΓΟΙ|ΜΑΙΕΥΤΉΡΕΣ - ΓΥΝΑΙΚΟΛΌΓΟΙ|ΜΙΚΡΟΒΙΟΛΌΓΟΙ|ΝΕΦΡΟΛΌΓΟΙ|ΟΡΘΟΠΕΔΙΚΟΊ|ΟΦΘΑΛΜΊΑΤΡΟΙ|ΠΑΘΟΛΌΓΟΙ|ΠΑΙΔΊΑΤΡΟΙ|ΦΥΜΑΤΙΟΛΌΓΟΙ - ΠΝΕΥΜΟΝΟΛΌΓΟΙ|ΧΕΙΡΟΥΡΓΟΊ ΓΕΝΙΚΉΣ ΧΕΙΡΟΥΡΓΙΚΉΣ|ΨΥΧΊΑΤΡΟΙ|ΩΤΟΡΙΝΟΛΑΡΥΓΓΟΛΌΓΟΙ,2461352600,grammateia@mamatsio.gr,http://www.mamatsio.gr/,31/12/2023,22/04/2026,1,
EL_GR100,ΓΕΝΙΚΟ ΝΟΣΟΚ.ΠΤΟΛΕΜΑΙΔΑΣ ΜΠΟΔΟΣΑΚΕΙΟ,,40.543914,21.6553,,,50200,ΠΤΟΛΕΜΑΙΔΑ,ΚΟΥΡΙ ΘΕΣΗ,EL,YES,,,,ΓΕΝΙΚΑ ΝΟΣΟΚΟΜΕΙΑ,PUBLIC,ΑΚΤΙΝΟΔΙΑΓΝΩΣΤΈΣ (ΑΚΤΙΝ. - ΡΑΔ.)|ΑΝΑΙΣΘΗΣΙΟΛΌΓΟΙ|ΓΕΝΙΚΉΣ ΙΑΤΡΙΚΉΣ|ΙΑΤΡΟΔΙΚΑΣΤΈΣ|ΚΑΡΔΙΟΛΌΓΟΙ|ΜΑΙΕΥΤΉΡΕΣ - ΓΥΝΑΙΚΟΛΌΓΟΙ|ΜΙΚΡΟΒΙΟΛΌΓΟΙ|ΝΕΥΡΟΛΌΓΟΙ|ΝΕΥΡΟΧΕΙΡΟΥΡΓΟΊ|ΝΕΦΡΟΛΌΓΟΙ|ΟΔΟΝΤΊΑΤΡΟΙ|ΟΡΘΟΠΕΔΙΚΟΊ|ΟΥΡΟΛΌΓΟΙ|ΟΦΘΑΛΜΊΑΤΡΟΙ|ΠΑΘΟΛΌΓΟΙ|ΠΑΙΔΊΑΤΡΟΙ.ΡΕΥΜΑΤΟΛΌΓΟΙ.ΧΕΙΡΟΥΡΓΟΊ ΓΕΝΙΚΉΣ ΧΕΙΡΟΥΡΓΙΚΉΣ|ΨΥΧΊΑΤΡΟΙ|ΕΝΤΑΤΙΚΟΛΌΓΟΙ,2463351100,ghptmp@otenet.gr,http://www.mpodosakeio.gr/,31/12/2023,22/04/2026,1,
EL_GR101,ΓΕΝΙΚΟ ΝΟΣΟΚΟΜΕΙΟ ΓΙΑΝΝΙΤΣΩΝ,,40.790550,22.42162,,,58100,ΓΙΑΝΝΙΤΣΑ,ΤΕΡΜΑ ΣΕΜΕΡΤΖΙΔΗ,EL,YES,,,,ΓΕΝΙΚΑ ΝΟΣΟΚΟΜΕΙΑ,PUBLIC,ΑΚΤΙΝΟΔΙΑΓΝΩΣΤΈΣ (ΑΚΤΙΝ. - ΡΑΔ.)|ΑΝΑΙΣΘΗΣΙΟΛΌΓΟΙ|ΓΕΝΙΚΉΣ ΙΑΤΡΙΚΉΣ|ΚΑΡΔΙΟΛΌΓΟΙ|ΜΑΙΕΥΤΉΡΕΣ - ΓΥΝΑΙΚΟΛΌΓΟΙ|ΝΕΥΡΟΛΌΓΟΙ|ΝΕΦΡΟΛΌΓΟΙ|ΟΔΟΝΤΊΑΤΡΟΙ|ΟΡΘΟΠΕΔΙΚΟΊ|ΠΑΘΟΛΌΓΟΙ|ΠΑΙΔΊΑΤΡΟΙ|ΧΕΙΡΟΥΡΓΟΊ ΓΕΝΙΚΉΣ ΧΕΙΡΟΥΡΓΙΚΉΣ|ΩΤΟΡΙΝΟΛΑΡΥΓΓΟΛΌΓΟΙ,2382350200,protokollo@gng.gov.gr,http://www.gng.gr/,31/12/2023,22/04/2026,1,
EL_GR102,ΓΕΝΙΚΟ ΝΟΣΟΚΟΜΕΙΟ ΕΔΕΣΣΑΣ,,40.790955,22.04243,,,58200,ΕΔΕΣΣΑ,ΤΕΡΜΑ ΕΓΝΑΤΙΑ,EL,YES,,,,ΓΕΝΙΚΑ ΝΟΣΟΚΟΜΕΙΑ,PUBLIC,ΑΙΜΑΤΟΛΌΓΟΙ|ΑΚΤΙΝΟΔΙΑΓΝΩΣΤΈΣ (ΑΚΤΙΝ. - ΡΑΔ.)|ΑΝΑΙΣΘΗΣΙΟΛΌΓΟΙ|ΓΑΣΤΡΕΝΤΕΡΟΛΌΓΟΙ|ΓΕΝΙΚΉΣ ΙΑΤΡΙΚΉΣ|ΔΕΡΜΑΤΟΛΌΓΟΙ - ΑΦΡΟΔΙΣΙΟΛΌΓΟΙ||ΜΑΙΕΥΤΉΡΕΣ - ΓΥΝΑΙΚΟΛΌΓΟΙ|ΜΙΚΡΟΒΙΟΛΌΓΟΙ|ΝΕΥΡΟΛΌΓΟΙ|ΝΕΥΡΟΧΕΙΡΟΥΡΓΟΊ|ΝΕΦΡΟΛΌΓΟΙ|ΟΔΟΝΤΊΑΤΡΟΙ|ΟΡΘΟΠΕΔΙΚΟΊ|ΟΥΡΟΛΌΓΟΙ|ΟΦΘΑΛΜΊΑΤΡΟΙ|ΠΑΘΟΛΟΓΟΑΝΑΤΌΜΟΙ|ΠΑΘΟΛΌΓΟΙ|ΠΑΙΔΊΑΤΡΟΙ|ΦΥΜΑΤΙΟΛΌΓΟΙ - ΠΝΕΥΜΟΝΟΛΌΓΟΙ|ΧΕΙΡΟΥΡΓΟΊ ΓΕΝΙΚΉΣ ΧΕΙΡΟΥΡΓΙΚΉΣ|ΨΥΧΊΑΤΡΟΙ|ΩΤΟΡΙΝΟΛΑΡΥΓΓΟΛΌΓΟΙ|ΑΓΓΕΙΟΧΕΙΡΟΥΡΓΟΊ|ΟΓΚΟΛΌΓΟΙ|ΕΝΤΑΤΙΚΟΛΌΓΟΙ|ΕΠΕΙΓΟΝΤΟΛΌΓΟΙ,2381350100,info@ gnedessas.gov.gr,http://www.gnedessas.gov.gr/,31/12/2023,22/04/2026,1,
EL_GR132,ΠΟΛΥΚΛΙΝΙΚΗ Γ.Ν. ΑΘΗΝΩΝ,,37.983306,23.7267,,,10552,ΑΘΗΝΑ,ΠΕΙΡΑΙΩΣ 3,EL,NO,,,,ΓΕΝΙΚΑ ΝΟΣΟΚΟΜΕΙΑ,PUBLIC,,2132044000,polykl.dioikisi@evaggelismos-hosp.gr,http://www.evaggelismos-hosp.gr/,31/12/2023,22/04/2026,1,
EL_GR103,ΓΕΝΙΚΟ ΝΟΣΟΚΟΜΕΙΟ ΚΑΤΕΡΙΝΗΣ,,40.293342,22.44519,,,50100,ΚΑΤΕΡΙΝΗ,6Ο ΧΛΜ ΚΑΤΕΡΙΝΗΣ- ΑΡΩΝΑ,EL,YES,,,,ΓΕΝΙΚΑ ΝΟΣΟΚΟΜΕΙΑ,PUBLIC,ΑΙΜΑΤΟΛΌΓΟΙ|ΑΚΤΙΝΟΔΙΑΓΝΩΣΤΈΣ (ΑΚΤΙΝ. - ΡΑΔ.)|ΑΝΑΙΣΘΗΣΙΟΛΌΓΟΙ|ΓΑΣΤΡΕΝΤΕΡΟΛΌΓΟΙ|ΓΕΝΙΚΉΣ ΙΑΤΡΙΚΉΣ|ΔΕΡΜΑΤΟΛΌΓΟΙ - ΑΦΡΟΔΙΣΙΟΛΌΓΟΙ|ΕΝΔΟΚΡΙΝΟΛΌΓΟΙ|ΚΑΡΔΙΟΛΌΓΟΙ|ΚΥΤΤΑΡΟΛΌΓΟΙ|ΜΑΙΕΥΤΉΡΕΣ - ΓΥΝΑΙΚΟΛΌΓΟΙ|ΜΙΚΡΟΒΙΟΛΌΓΟΙ|ΝΕΥΡΟΛΌΓΟΙ|ΝΕΥΡΟΧΕΙΡΟΥΡΓΟΊ|ΝΕΦΡΟΛΌΓΟΙ|ΟΔΟΝΤΊΑΤΡΟΙ|ΟΡΘΟΠΕΔΙΚΟΊ|ΟΥΡΟΛΌΓΟΙ|ΟΦΘΑΛΜΊΑΤΡΟΙ|ΠΑΘΟΛΟΓΟΑΝΑΤΌΜΟΙ|ΠΑΘΟΛΌΓΟΙ|ΠΑΙΔΊΑΤΡΟΙ|ΠΑΙΔΟΨΥΧΊΑΤΡΟΙ|ΠΥΡΗΝΙΚΉΣ ΙΑΤΡΙΚΉΣ|ΦΥΜΑΤΙΟΛΌΓΟΙ - ΠΝΕΥΜΟΝΟΛΌΓΟΙ|ΧΕΙΡΟΥΡΓΟΊ ΓΕΝΙΚΉΣ ΧΕΙΡΟΥΡΓΙΚΉΣ|ΨΥΧΊΑΤΡΟΙ|ΓΝΑΘΟΧΕΙΡΟΥΡΓΟΊ|ΟΓΚΟΛΌΓΟΙ|ΕΝΤΑΤΙΚΟΛΌΓΟΙ|ΕΠΕΙΓΟΝΤΟΛΌΓΟΙ,2351350200,hoskat@otenet.gr,http://www.gnkaterini.gr/,31/12/2023,22/04/2026,1,
EL_GR104,ΓΕΝΙΚΟ ΝΟΣΟΚΟΜΕΙΟ ΣΕΡΡΩΝ,,41.089991,23.58261,,,62100,ΣΕΡΡΕΣ,3Ο Χ.Λ.Μ. ΕΘΝ.ΟΔΟΥ ΣΕΡΡΩΝ,EL,YES,,,,ΓΕΝΙΚΑ ΝΟΣΟΚΟΜΕΙΑ,PUBLIC,ΑΙΜΑΤΟΛΌΓΟΙ|ΑΚΤΙΝΟΘΕΡΑΠΕΥΤΈΣ|ΑΚΤΙΝΟΔΙΑΓΝΩΣΤΈΣ (ΑΚΤΙΝ. - ΡΑΔ.)|ΑΝΑΙΣΘΗΣΙΟΛΌΓΟΙ|ΓΑΣΤΡΕΝΤΕΡΟΛΌΓΟΙ|ΓΕΝΙΚΉΣ ΙΑΤΡΙΚΉΣ|ΔΕΡΜΑΤΟΛΌΓΟΙ - ΑΦΡΟΔΙΣΙΟΛΌΓΟΙ|ΕΝΔΟΚΡΙΝΟΛΌΓΟΙ|ΙΑΤΡΙΚΉΣ ΤΗΣ ΕΡΓΑΣΊΑΣ|ΙΑΤΡΟΔΙΚΑΣΤΈΣ|ΚΑΡΔΙΟΛΌΓΟΙ|ΚΟΙΝΩΝΙΚΉΣ ΙΑΤΡΙΚΉΣ|ΚΥΤΤΑΡΟΛΌΓΟΙ|ΜΑΙΕΥΤΉΡΕΣ - ΓΥΝΑΙΚΟΛΌΓΟΙ|ΜΙΚΡΟΒΙΟΛΌΓΟΙ|ΝΕΥΡΟΛΌΓΟΙ|ΝΕΥΡΟΧΕΙΡΟΥΡΓΟΊ|ΝΕΦΡΟΛΌΓΟΙ|ΟΔΟΝΤΊΑΤΡΟΙ|ΟΡΘΟΠΕΔΙΚΟΊ|ΟΥΡΟΛΌΓΟΙ|ΟΦΘΑΛΜΊΑΤΡΟΙ|ΠΑΘΟΛΟΓΟΑΝΑΤΌΜΟΙ|ΠΑΘΟΛΌΓΟΙ|ΠΑΙΔΊΑΤΡΟΙ|ΠΑΙΔΟΨΥΧΊΑΤΡΟΙ|ΠΥΡΗΝΙΚΉΣ ΙΑΤΡΙΚΉΣ|ΡΕΥΜΑΤΟΛΌΓΟΙ|ΦΥΜΑΤΙΟΛΌΓΟΙ - ΠΝΕΥΜΟΝΟΛΌΓΟΙ|ΧΕΙΡΟΥΡΓΟΊ ΓΕΝΙΚΉΣ ΧΕΙΡΟΥΡΓΙΚΉΣ|ΧΕΙΡΟΥΡΓΟΊ ΘΏΡΑΚΑ|ΧΕΙΡΟΥΡΓΟΊ ΠΑΊΔΩΝ|ΧΕΙΡΟΥΡΓΟΊ ΠΛΑΣΤΙΚΉΣ ΧΕΙΡΟΥΡΓΙΚΉΣ|ΨΥΧΊΑΤΡΟΙ|ΩΤΟΡΙΝΟΛΑΡΥΓΓΟΛΌΓΟΙ|ΑΓΓΕΙΟΧΕΙΡΟΥΡΓΟΊ|ΓΝΑΘΟΧΕΙΡΟΥΡΓΟΊ|ΟΓΚΟΛΌΓΟΙ|ΕΝΤΑΤΙΚΟΛΌΓΟΙ|ΕΠΕΙΓΟΝΤΟΛΌΓΟΙ,2321094500,gnserres@hospser.gr,http://www.hospser.gr/,31/12/2023,22/04/2026,1,
EL_GR105,ΓΕΝ. ΝΟΣΟΚ. ΦΛΩΡΙΝΑΣ ΕΛΕΝΗ Θ.ΔΗΜΗΤΡΙΟΥ,,40.785351,21.40916,,,53100,ΦΛΩΡΙΝΑ,ΕΓΝΑΤΙΑΣ 9,EL,YES,,,,ΓΕΝΙΚΑ ΝΟΣΟΚΟΜΕΙΑ,PUBLIC,ΑΙΜΑΤΟΛΌΓΟΙ|ΑΚΤΙΝΟΔΙΑΓΝΩΣΤΈΣ (ΑΚΤΙΝ. - ΡΑΔ.)|ΑΝΑΙΣΘΗΣΙΟΛΌΓΟΙ|ΓΑΣΤΡΕΝΤΕΡΟΛΌΓΟΙ|ΓΕΝΙΚΉΣ ΙΑΤΡΙΚΉΣ|ΔΕΡΜΑΤΟΛΌΓΟΙ - ΑΦΡΟΔΙΣΙΟΛΌΓΟΙ|ΚΑΡΔΙΟΛΌΓΟΙ|ΚΥΤΤΑΡΟΛΌΓΟΙ|ΜΑΙΕΥΤΉΡΕΣ - ΓΥΝΑΙΚΟΛΌΓΟΙ|ΜΙΚΡΟΒΙΟΛΌΓΟΙ|ΝΕΥΡΟΛΌΓΟΙ|ΝΕΦΡΟΛΌΓΟΙ|ΟΔΟΝΤΊΑΤΡΟΙ|ΟΡΘΟΠΕΔΙΚΟΊ|ΟΥΡΟΛΌΓΟΙ|ΟΦΘΑΛΜΊΑΤΡΟΙ|ΠΑΘΟΛΌΓΟΙ|ΠΑΙΔΊΑΤΡΟΙ|ΦΥΜΑΤΙΟΛΌΓΟΙ - ΠΝΕΥΜΟΝΟΛΌΓΟΙ|ΧΕΙΡΟΥΡΓΟΊ ΓΕΝΙΚΉΣ ΧΕΙΡΟΥΡΓΙΚΉΣ|ΨΥΧΊΑΤΡΟΙ|ΩΤΟΡΙΝΟΛΑΡΥΓΓΟΛΌΓΟΙ|ΟΓΚΟΛΌΓΟΙ|ΕΝΤΑΤΙΚΟΛΌΓΟΙ,2385350100,gramatia@nosflorinas.gr,http://florinahospital.gr/,31/12/2023,22/04/2026,1,
EL_GR106,ΓΕΝΙΚΟ ΝΟΣΟΚΟΜΕΙΟ ΧΑΛΚΙΔΙΚΗΣ,,40.384464,23.44517,,,63100,ΠΟΛΥΓΥΡΟΣ,ΙΠΠΟΚΡΑΤΟΥΣ 5,EL,YES,,,,ΓΕΝΙΚΑ ΝΟΣΟΚΟΜΕΙΑ,PUBLIC,ΑΚΤΙΝΟΔΙΑΓΝΩΣΤΈΣ (ΑΚΤΙΝ. - ΡΑΔ.)|ΑΝΑΙΣΘΗΣΙΟΛΌΓΟΙ|ΓΕΝΙΚΉΣ ΙΑΤΡΙΚΉΣ||ΜΑΙΕΥΤΉΡΕΣ - ΓΥΝΑΙΚΟΛΌΓΟΙ|ΜΙΚΡΟΒΙΟΛΌΓΟΙ|ΟΔΟΝΤΊΑΤΡΟΙ|ΟΡΘΟΠΕΔΙΚΟΊ|ΟΥΡΟΛΌΓΟΙ|ΟΦΘΑΛΜΊΑΤΡΟΙ|ΠΑΘΟΛΌΓΟΙ|ΠΑΙΔΊΑΤΡΟΙ|ΦΥΜΑΤΙΟΛΌΓΟΙ - ΠΝΕΥΜΟΝΟΛΌΓΟΙ|ΧΕΙΡΟΥΡΓΟΊ ΓΕΝΙΚΉΣ ΧΕΙΡΟΥΡΓΙΚΉΣ|ΩΤΟΡΙΝΟΛΑΡΥΓΓΟΛΌΓΟΙ,2371350100,gnx@1157.syzefxis.gov.gr,http://www.hospitalchalkidiki.gr/,31/12/2023,22/04/2026,1,
EL_GR107,ΓΕΝΙΚΟ ΝΟΣΟΚΟΜΕΙΟ ΑΛΕΞΑΝΔΡΟΥΠΟΛΗΣ,,40.861514,25.80189,,,68100,ΑΛΕΞ/ΠΟΛΗ,ΔΡΑΓΑΝΑ,EL,YES,,,,ΓΕΝΙΚΑ ΝΟΣΟΚΟΜΕΙΑ,PUBLIC,ΑΚΤΙΝΟΔΙΑΓΝΩΣΤΈΣ (ΑΚΤΙΝ. - ΡΑΔ.)|ΑΝΑΙΣΘΗΣΙΟΛΌΓΟΙ|ΓΕΝΙΚΉΣ ΙΑΤΡΙΚΉΣ|ΔΕΡΜΑΤΟΛΌΓΟΙ - ΑΦΡΟΔΙΣΙΟΛΌΓΟΙ|ΜΑΙΕΥΤΉΡΕΣ - ΓΥΝΑΙΚΟΛΌΓΟΙ|ΜΙΚΡΟΒΙΟΛΌΓΟΙ|ΝΕΥΡΟΛΌΓΟΙ|ΟΔΟΝΤΊΑΤΡΟΙ|ΟΡΘΟΠΕΔΙΚΟΊ|ΟΥΡΟΛΌΓΟΙ|ΟΦΘΑΛΜΊΑΤΡΟΙ|ΠΑΘΟΛΌΓΟΙ|ΠΑΙΔΊΑΤΡΟΙ|ΦΥΜΑΤΙΟΛΌΓΟΙ - ΠΝΕΥΜΟΝΟΛΌΓΟΙ|ΧΕΙΡΟΥΡΓΟΊ ΓΕΝΙΚΉΣ ΧΕΙΡΟΥΡΓΙΚΉΣ,2551353000,grammateia@pgna.gr,http://www.pgna.gr/,31/12/2023,22/04/2026,1,
EL_GR108,ΓΕΝΙΚΟ ΝΟΣΟΚΟΜΕΙΟ ΔΙΔΥΜΟΤΕΙΧΟΥ,,41.352298,26.50379,,,68300,ΔΙΔΥΜΟΤΕΙΧΟ,25ΗΣ ΜΑΙΟΥ 152,EL,YES,,,,ΓΕΝΙΚΑ ΝΟΣΟΚΟΜΕΙΑ,PUBLIC,ΓΕΝΙΚΉΣ ΙΑΤΡΙΚΉΣ|ΜΙΚΡΟΒΙΟΛΌΓΟΙ|ΟΡΘΟΠΕΔΙΚΟΊ|ΠΑΘΟΛΌΓΟΙ|ΠΑΙΔΊΑΤΡΟΙ,2553350100,did-hosp@otenet.gr,http://www.did-hosp.gr/,31/12/2023,22/04/2026,1,
EL_GR109,ΓΕΝΙΚΟ ΝΟΣΟΚΟΜΕΙΟ ΞΑΝΘΗΣ,,41.123489,24.86802,,,67100,ΞΑΝΘΗ,ΝΕΑΠΟΛΗ,EL,YES,,,,ΓΕΝΙΚΑ ΝΟΣΟΚΟΜΕΙΑ,PUBLIC,ΑΚΤΙΝΟΔΙΑΓΝΩΣΤΈΣ (ΑΚΤΙΝ. - ΡΑΔ.)|ΑΝΑΙΣΘΗΣΙΟΛΌΓΟΙ|ΓΑΣΤΡΕΝΤΕΡΟΛΌΓΟΙ|ΓΕΝΙΚΉΣ ΙΑΤΡΙΚΉΣ|ΚΑΡΔΙΟΛΌΓΟΙ|ΜΑΙΕΥΤΉΡΕΣ - ΓΥΝΑΙΚΟΛΌΓΟΙ|ΜΙΚΡΟΒΙΟΛΌΓΟΙ|ΝΕΥΡΟΛΌΓΟΙ|ΝΕΦΡΟΛΌΓΟΙ|ΟΔΟΝΤΊΑΤΡΟΙ|ΟΡΘΟΠΕΔΙΚΟΊ|ΟΥΡΟΛΌΓΟΙ|ΟΦΘΑΛΜΊΑΤΡΟΙ|ΠΑΘΟΛΌΓΟΙ|ΠΑΙΔΊΑΤΡΟΙ|ΠΑΙΔΟΨΥΧΊΑΤΡΟΙ|ΦΥΜΑΤΙΟΛΌΓΟΙ - ΠΝΕΥΜΟΝΟΛΌΓΟΙ|ΦΥΣΙΚΉΣ ΙΑΤΡΙΚΉΣ ΚΑΙ ΑΠΟΚΑΤΆΣΤΑΣΗΣ|ΧΕΙΡΟΥΡΓΟΊ ΓΕΝΙΚΉΣ ΧΕΙΡΟΥΡΓΙΚΉΣ|ΨΥΧΊΑΤΡΟΙ|ΩΤΟΡΙΝΟΛΑΡΥΓΓΟΛΌΓΟΙ|ΟΓΚΟΛΌΓΟΙ|ΕΝΤΑΤΙΚΟΛΌΓΟΙ|ΕΠΕΙΓΟΝΤΟΛΌΓΟΙ,2541351100,contact_us@hosp-xanthi.gr,http://www.hosp-xanthi.gr/,31/12/2023,22/04/2026,1,
EL_GR133,ΠΑΝΕΠΙΣΤΗΜΙΑΚΟ ΓΕΝΙΚΟ ΝΟΣΟΚΟΜΕΙΟ ΑΤΤΙΚΟΝ - Γ.Ν. ΔΥΤΙΚΗΣ ΑΤΤΙΚΗΣ ΑΓΙΑ ΒΑΡΒΑΡΑ – (ΠΡΩΗΝ ΛΟΙΜΩΔΩΝ),,37.993199,23.66512,,,12531,ΑΓ.ΒΑΡΒΑΡΑ,ΔΩΔΕΚΑΝΗΣΟΥ 1 & ΝΕΣΤΟΥ,EL,YES,,,,ΓΕΝΙΚΑ ΝΟΣΟΚΟΜΕΙΑ,PUBLIC,,2132072900,gramdioikisi@0286.syzefxis.gov.gr,,31/12/2023,22/04/2026,1,
EL_GR110,ΓΕΝΙΚΟ ΝΟΣΟΚΟΜΕΙΟ ΚΟΜΟΤΗΝΗΣ ''ΣΙΣΜΑΝΟΓΛΕΙΟ'',,41.112435,25.41269,,,69100,ΚΟΜΟΤΗΝΗ,ΣΙΣΜΑΝΟΓΛΟΥ 45,EL,YES,,,,ΓΕΝΙΚΑ ΝΟΣΟΚΟΜΕΙΑ,PUBLIC,ΑΙΜΑΤΟΛΌΓΟΙ|ΑΚΤΙΝΟΔΙΑΓΝΩΣΤΈΣ (ΑΚΤΙΝ. - ΡΑΔ.)|ΑΝΑΙΣΘΗΣΙΟΛΌΓΟΙ|ΓΑΣΤΡΕΝΤΕΡΟΛΌΓΟΙ|ΓΕΝΙΚΉΣ ΙΑΤΡΙΚΉΣ|ΔΕΡΜΑΤΟΛΌΓΟΙ - ΑΦΡΟΔΙΣΙΟΛΌΓΟΙ|ΕΝΔΟΚΡΙΝΟΛΌΓΟΙ|ΚΑΡΔΙΟΛΌΓΟΙ| ΜΑΙΕΥΤΉΡΕΣ - ΓΥΝΑΙΚΟΛΌΓΟΙ|ΜΙΚΡΟΒΙΟΛΌΓΟΙ|ΝΕΥΡΟΛΌΓΟΙ|ΝΕΥΡΟΧΕΙΡΟΥΡΓΟΊ|ΝΕΦΡΟΛΌΓΟΙ|ΟΔΟΝΤΊΑΤΡΟΙ|ΟΡΘΟΠΕΔΙΚΟΊ|ΟΥΡΟΛΌΓΟΙ|ΟΦΘΑΛΜΊΑΤΡΟΙ|ΠΑΘΟΛΟΓΟΑΝΑΤΌΜΟΙ|ΠΑΘΟΛΌΓΟΙ|ΠΑΙΔΊΑΤΡΟΙ|ΠΑΙΔΟΨΥΧΊΑΤΡΟΙ|ΠΥΡΗΝΙΚΉΣ ΙΑΤΡΙΚΉΣ|ΡΕΥΜΑΤΟΛΌΓΟΙ.ΧΕΙΡΟΥΡΓΟΊ ΓΕΝΙΚΉΣ ΧΕΙΡΟΥΡΓΙΚΉΣ|ΧΕΙΡΟΥΡΓΟΊ ΘΏΡΑΚΑ|ΧΕΙΡΟΥΡΓΟΊ ΠΑΊΔΩΝ|ΧΕΙΡΟΥΡΓΟΊ ΠΛΑΣΤΙΚΉΣ ΧΕΙΡΟΥΡΓΙΚΉΣ|ΨΥΧΊΑΤΡΟΙ|ΩΤΟΡΙΝΟΛΑΡΥΓΓΟΛΌΓΟΙ|ΟΓΚΟΛΌΓΟΙ,2531351100,info@komotini-hospital.gr,http://www.komotini-hospital.gr/,31/12/2023,22/04/2026,1,
EL_GR111,ΓΕΝΙΚΟ ΝΟΣΟΚΟΜΕΙΟ ΡΟΔΟΥ ΑΝΔΡΕΑΣ ΠΑΠΑΝΔΡΕΟΥ,,36.418233,28.19255,,,85100,ΡΟΔΟΣ,Γ. ΣΕΦΕΡΗ,EL,YES,,,,ΓΕΝΙΚΑ ΝΟΣΟΚΟΜΕΙΑ,PUBLIC,,2241360000,rights@rhodes-hospital.gr,https://www.rhodes-hospital.gr/,31/12/2023,22/04/2026,1,
EL_GR112,ΔΙΑΣΥΝΔΕΟΜΕΝΟ ΓΕΝΙΚΟ ΝΟΣΟΚΟΜΕΙΟ -Κ.Υ. ΚΩ,,36.892776,27.29146,,,85300,ΚΩΣ,ΙΠΠΟΚΡΑΤΟΥΣ 34,EL,YES,,,,ΓΕΝΙΚΑ ΝΟΣΟΚΟΜΕΙΑ,PUBLIC,ΔΕΡΜΑΤΟΛΌΓΟΙ - ΑΦΡΟΔΙΣΙΟΛΌΓΟΙ|ΚΑΡΔΙΟΛΌΓΟΙ|ΝΕΦΡΟΛΌΓΟΙ|ΟΔΟΝΤΊΑΤΡΟΙ|ΠΑΘΟΛΌΓΟΙ|ΠΑΙΔΊΑΤΡΟΙ|ΡΕΥΜΑΤΟΛΌΓΟΙ|ΧΕΙΡΟΥΡΓΟΊ ΓΕΝΙΚΉΣ ΧΕΙΡΟΥΡΓΙΚΉΣ|ΨΥΧΊΑΤΡΟΙ,2242360200,grammateia@kos-hospital.gov.gr,https://www.genikonosokomeioko.gr/,31/12/2023,22/04/2026,1,
EL_GR113,ΓΕΝΙΚΟ ΝΟΣΟΚΟΜΕΙΟ-Κ.Υ.ΚΑΛΥΜΝΟΥ ''ΤΟ ΒΟΥΒΑΛΕΙΟ'',,36.957163,26.97254,,,85200,ΚΑΛΥΜΝΟΣ,Ν.ΖΕΡΒΟΥ 22,EL,YES,,,,ΓΕΝΙΚΑ ΝΟΣΟΚΟΜΕΙΑ,PUBLIC,,2243361900,noskal@kalymnos-hospital.gr,https://kalymnos-hospital.gov.gr/,31/12/2023,22/04/2026,1,
EL_GR114,ΚΡΑΤΙΚΟ ΘΕΡΑΠΕΥΤΗΡΙΟ - Κ.Υ. ΛΕΡΟΥ,,37.133138,26.84785,,,85401,ΛΕΡΟΣ,ΛΑΚΚΙ,EL,YES,,,,ΓΕΝΙΚΑ ΝΟΣΟΚΟΜΕΙΑ,PUBLIC,,2247360100,info@leros-hospital.gr,https://leros-hospital.gr/,31/12/2023,22/04/2026,1,
EL_GR115,"ΓΕΝΙΚΟ ΝΟΣΟΚΟΜΕΙΟ ΚΑΡΠΑΘΟΥ ""ΑΓΙΟΣ ΙΩΑΝΝΗΣ ΚΑΡΠΑΘΙΟΣ""",,35.527641,27.19464,,,85700,ΚΑΡΠΑΘΟΣ,ΒΡΟΝΤΗ,EL,YES,,,,ΓΕΝΙΚΑ ΝΟΣΟΚΟΜΕΙΑ,PUBLIC,,2245022228,grammateia@karpathos-hospital.gov.gr,http://www.karpathos-hospital.gov.gr/,31/12/2023,22/04/2026,1,
EL_GR116,ΝΟΜΑΡΧ.ΓΕΝΙΚΟ ΝΟΣΟΚ.ΣΥΡΟΥ,,37.438325,24.935,,,84100,ΣΥΡΟΣ,Γ.ΠΑΠΑΝΔΡΕΟΥ 2,EL,YES,,,,ΓΕΝΙΚΑ ΝΟΣΟΚΟΜΕΙΑ,PUBLIC,,2281360500,info@vardakeio.gov.gr,https://www.vardakeio.gov.gr/,31/12/2023,22/04/2026,1,
EL_GR117,ΓΕΝΙΚΟ ΝΟΣΟΚΟΜΕΙΟ-Κ.Υ. ΝΑΞΟΥ,,37.102502,25.38086,,,84300,ΝΑΞΟΣ,ΝΑΞΟΣ,EL,YES,,,,ΓΕΝΙΚΑ ΝΟΣΟΚΟΜΕΙΑ,PUBLIC,,2285360500,info@naxoshospital.gr,https://www.naxoshospital.gr/,31/12/2023,22/04/2026,1,
EL_GR118,ΓΕΝΙΚΟ ΝΟΣΟΚΟΜΕΙΟ ΘΗΡΑΣ,,36.407472,25.44163,,,84700,ΣΑΝΤΟΡΙΝΗ,ΚΑΡΤΕΡΑΔΟΣ,EL,YES,,,,ΓΕΝΙΚΑ ΝΟΣΟΚΟΜΕΙΑ,PUBLIC,,2286035300,info@santorini-hospital.gr,https://www.santorini-hospital.gr/,31/12/2023,22/04/2026,1,
EL_GR119,ΓΕΝΙΚΟ ΝΟΣΟΚΟΜΕΙΟ ΜΥΤΙΛΗΝΗΣ ''ΒΟΣΤΑΝΕΙΟ'',,39.091323,26.54925,,,81100,ΜΥΤΙΛΗΝΗ,Ε.ΒΟΣΤΑΝΗ 48,EL,YES,,,,ΓΕΝΙΚΑ ΝΟΣΟΚΟΜΕΙΑ,PUBLIC,,2251057700,grammateia@vostanio.gov.gr,https://vostanio.gov.gr/,31/12/2023,22/04/2026,1,
EL_GR120,ΓΕΝΙΚΟ ΝΟΣΟΚΟΜΕΙΟ - Κ.Υ. ΛΗΜΝΟΥ,,39.875362,25.06578,,,81400,ΛΗΜΝΟΣ,ΗΦΑΙΣΤΟΥ 1 ΜΥΡΙΝΑ,EL,YES,,,,ΓΕΝΙΚΑ ΝΟΣΟΚΟΜΕΙΑ,PUBLIC,,2254350400,info-gnlimnou@1160.syzefxis.gov.gr,https://limnoshospital.gr/,31/12/2023,22/04/2026,1,
EL_GR121,ΓΕΝΙΚΟ ΝΟΣΟΚ.ΣΑΜΟΥ ΑΓΙΟΣ ΠΑΝΤΕΛΕΗΜΟΝΑΣ,,37.761725,26.96964,,,83100,ΣΑΜΟΣ,ΣΥΝΤΑΓ/ΧΟΥ ΚΕΦΑΛΟΠΟΥΛΟΥ 17,EL,YES,,,,ΓΕΝΙΚΑ ΝΟΣΟΚΟΜΕΙΑ,PUBLIC,,2273083100,hospsam@otenet.gr,https://www.nosokomeiosamou.gr/,31/12/2023,22/04/2026,1,
EL_GR122,ΓΕΝΙΚΟ ΝΟΣΟΚΟΜΕΙΟ -Κ.Υ ΙΚΑΡΙΑΣ,,37.612265,26.29138,,,83300,ΙΚΑΡΙΑ,ΑΓΙΟΣ ΚΗΡΥΚΟΣ,EL,YES,,,,ΓΕΝΙΚΑ ΝΟΣΟΚΟΜΕΙΑ,PUBLIC,,2275350201,gni.ikarias@gmail.com,https://www.gnikarias.org/,31/12/2023,22/04/2026,1,
EL_GR123,ΣΚΥΛΙΤΣΕΙΟ ΓΕΝΙΚΟ ΝΟΣΟΚΟΜΕΙΟ ΧΙΟΥ,,38.383665,26.13753,,,82100,ΧΙΟΣ,ΕΛ. ΒΕΝΙΖΕΛΟΥ 2,EL,YES,,,,ΓΕΝΙΚΑ ΝΟΣΟΚΟΜΕΙΑ,PUBLIC,,2271350100,grammateia@xioshosp.gr,https://www.xioshosp.gr/,31/12/2023,22/04/2026,1,
EL_GR124,"""ΒΕΝΙΖΕΛΕΙΟ-ΠΑΝΑΝΕΙΟ'' ΓΕΝ. ΝΟΣ. ΗΡΑΚΛΕΙΟΥ",,35.335255,25.12847,,,71001,ΗΡΑΚΛΕΙΟ,ΛΕΩΦ.ΚΝΩΣΣΟΥ,EL,YES,,,,ΓΕΝΙΚΑ ΝΟΣΟΚΟΜΕΙΑ,PUBLIC,,2813408000,information@venizeleio.gr,http://www.venizeleio.gr/,31/12/2023,22/04/2026,1,
EL_GR125,Π.Ε.Π.Α.Γ.Ν.Η.,,35.304007,25.08314,,,71001,ΗΡΑΚΛΕΙΟ,ΔΙΑΣΤΑΥΡΩΣΗ ΒΟΥΤΩΝ,EL,YES,,,,ΓΕΝΙΚΑ ΝΟΣΟΚΟΜΕΙΑ,PUBLIC,,2813402111,yppa@pagni.gr,http://www.pagni.gr/,31/12/2023,22/04/2026,1,
EL_GR126,ΓΕΝΙΚΟ ΝΟΣΟΚΟΜΕΙΟ ΑΓΙΟΥ ΝΙΚΟΛΑΟΥ,,35.194372,25.71357,,,72100,ΑΓ.ΝΙΚΟΛΑΟΣ,ΚΝΩΣΣΟΥ 4,EL,YES,,,,ΓΕΝΙΚΑ ΝΟΣΟΚΟΜΕΙΑ,PUBLIC,,2841343000,info@agnhosp.gr/,http://www.agnhosp.gr/,31/12/2023,22/04/2026,1,
EL_GR127,ΓΕΝΙΚΟ ΝΟΣΟΚΟΜΕΙΟ - Κ.Υ. ΙΕΡΑΠΕΤΡΑΣ,,35.013457,25.74195,,,72200,ΙΕΡΑΠΕΤΡΑ,ΚΑΛΗΜΕΡΑΚΗ 6,EL,YES,,,,ΓΕΝΙΚΑ ΝΟΣΟΚΟΜΕΙΑ,PUBLIC,,2842340222,info@ierapetrahospital.gr,http://www.ierapetrahospital.gr/,31/12/2023,22/04/2026,1,
EL_GR0134,ΑΘΗΝΑΙΚΗ ΓΕΝΙΚΗ ΚΛΙΝΙΚΗ Α.Ε,,37.983631,23.75485,,,11521,ΑΘΗΝΑ,ΔΟΡΥΛΑΙΟΥ 24,EL,YES,,,,ΓΕΝΙΚΑ ΝΟΣΟΚΟΜΕΙΑ,PRIVATE,ΑΙΜΑΤΟΛΌΓΟΙ|ΑΚΤΙΝΟΔΙΑΓΝΩΣΤΈΣ (ΑΚΤΙΝ. - ΡΑΔ.)|ΑΛΛΕΡΓΙΟΛΌΓΟΙ|ΑΝΑΙΣΘΗΣΙΟΛΌΓΟΙ|ΓΑΣΤΡΕΝΤΕΡΟΛΌΓΟΙ|ΓΕΝΙΚΉΣ ΙΑΤΡΙΚΉΣ|ΔΕΡΜΑΤΟΛΌΓΟΙ - ΑΦΡΟΔΙΣΙΟΛΌΓΟΙ|ΕΝΔΟΚΡΙΝΟΛΌΓΟΙ|ΚΑΡΔΙΟΛΌΓΟΙ|ΜΑΙΕΥΤΉΡΕΣ - ΓΥΝΑΙΚΟΛΌΓΟΙ|ΜΙΚΡΟΒΙΟΛΌΓΟΙ|ΝΕΥΡΟΛΌΓΟΙ|ΝΕΦΡΟΛΌΓΟΙ|ΟΡΘΟΠΕΔΙΚΟΊ|ΟΥΡΟΛΌΓΟΙ|ΟΦΘΑΛΜΊΑΤΡΟΙ|ΠΑΘΟΛΟΓΟΑΝΑΤΌΜΟΙ|ΠΑΘΟΛΌΓΟΙ|ΡΕΥΜΑΤΟΛΌΓΟΙ|ΦΥΜΑΤΙΟΛΌΓΟΙ - ΠΝΕΥΜΟΝΟΛΌΓΟΙ|ΧΕΙΡΟΥΡΓΟΊ ΓΕΝΙΚΉΣ ΧΕΙΡΟΥΡΓΙΚΉΣ|ΧΕΙΡΟΥΡΓΟΊ ΠΛΑΣΤΙΚΉΣ ΧΕΙΡΟΥΡΓΙΚΉΣ|ΩΤΟΡΙΝΟΛΑΡΥΓΓΟΛΌΓΟΙ,2106467500,info@athinaiki-mediclinic.gr,https://www.medifirst.gr/diktyo/athinaiki-mediclin,31/12/2023,22/04/2026,1,
EL_GR0135,ΠΡΩΗΝ EUROMEDICA Α.Ε ΑΘΗΝΑΙΟΝ Α' - IASYS CLINIC,,37.964664,23.75587,,,16231,ΒΥΡΩΝΑΣ,ΚΟΝΩΝΟΣ 123,EL,NO,,,,ΓΕΝΙΚΑ ΝΟΣΟΚΟΜΕΙΑ,PRIVATE,ΑΚΤΙΝΟΘΕΡΑΠΕΥΤΈΣ|ΑΝΑΙΣΘΗΣΙΟΛΌΓΟΙ|ΓΑΣΤΡΕΝΤΕΡΟΛΌΓΟΙ|ΓΕΝΙΚΉΣ ΙΑΤΡΙΚΉΣ|ΟΡΘΟΠΕΔΙΚΟΊ|ΠΑΘΟΛΌΓΟΙ,2107676100,info@iasysclinic.gr,https://iasysclinic.gr/,31/12/2023,22/04/2026,1,
EL_GR0136,ΙΑΤΡΙΚΟ ΑΘΗΝΩΝ-ΚΛΙΝΙΚΗ ΨΥΧΙΚΟΥ,,37.996509,23.7696,,,11525,ΑΘΗΝΑ,ΑΝΤΕΡΣΕΝ 1,EL,YES,,,,ΓΕΝΙΚΑ ΝΟΣΟΚΟΜΕΙΑ,PRIVATE,ΑΙΜΑΤΟΛΌΓΟΙ|ΑΚΤΙΝΟΔΙΑΓΝΩΣΤΈΣ (ΑΚΤΙΝ. - ΡΑΔ.)|ΑΝΑΙΣΘΗΣΙΟΛΌΓΟΙ|ΓΑΣΤΡΕΝΤΕΡΟΛΌΓΟΙ|ΓΕΝΙΚΉΣ ΙΑΤΡΙΚΉΣ|ΚΑΡΔΙΟΛΌΓΟΙ|ΜΑΙΕΥΤΉΡΕΣ - ΓΥΝΑΙΚΟΛΌΓΟΙ|ΜΙΚΡΟΒΙΟΛΌΓΟΙ|ΝΕΥΡΟΛΌΓΟΙ|ΝΕΥΡΟΧΕΙΡΟΥΡΓΟΊ|ΟΡΘΟΠΕΔΙΚΟΊ|ΟΥΡΟΛΌΓΟΙ|ΟΦΘΑΛΜΊΑΤΡΟΙ|ΠΑΘΟΛΌΓΟΙ|ΦΥΜΑΤΙΟΛΌΓΟΙ - ΠΝΕΥΜΟΝΟΛΌΓΟΙ|ΧΕΙΡΟΥΡΓΟΊ ΓΕΝΙΚΉΣ ΧΕΙΡΟΥΡΓΙΚΉΣ|ΧΕΙΡΟΥΡΓΟΊ ΘΏΡΑΚΑ|ΧΕΙΡΟΥΡΓΟΊ ΠΛΑΣΤΙΚΉΣ ΧΕΙΡΟΥΡΓΙΚΉΣ|ΩΤΟΡΙΝΟΛΑΡΥΓΓΟΛΌΓΟΙ|ΑΓΓΕΙΟΧΕΙΡΟΥΡΓΟΊ|ΧΩΡΊΣ ΕΙΔΙΚΌΤΗΤΑ,2106974000,,https://www.iatriko.gr/el/iatriko-psichikou,31/12/2023,22/04/2026,1,
EL_GR0137,ΑΤΤΙΚΟ ΘΕΡΑΠΕΥΤΗΡΙΟ Α.Ε.,,37.999483,23.74099,,,11362,ΑΘΗΝΑ,ΣΠΕΤΣΩΝ 100,EL,NO,,,,ΓΕΝΙΚΑ ΝΟΣΟΚΟΜΕΙΑ,PRIVATE,ΑΚΤΙΝΟΔΙΑΓΝΩΣΤΈΣ (ΑΚΤΙΝ. - ΡΑΔ.)|ΑΝΑΙΣΘΗΣΙΟΛΌΓΟΙ|ΚΑΡΔΙΟΛΌΓΟΙ|ΜΑΙΕΥΤΉΡΕΣ - ΓΥΝΑΙΚΟΛΌΓΟΙ|ΜΙΚΡΟΒΙΟΛΌΓΟΙ|ΝΕΦΡΟΛΌΓΟΙ|ΟΡΘΟΠΕΔΙΚΟΊ|ΟΥΡΟΛΌΓΟΙ|ΟΦΘΑΛΜΊΑΤΡΟΙ|ΠΑΘΟΛΌΓΟΙ|ΦΥΜΑΤΙΟΛΌΓΟΙ - ΠΝΕΥΜΟΝΟΛΌΓΟΙ|ΧΕΙΡΟΥΡΓΟΊ ΓΕΝΙΚΉΣ ΧΕΙΡΟΥΡΓΙΚΉΣ|ΧΕΙΡΟΥΡΓΟΊ ΠΛΑΣΤΙΚΉΣ ΧΕΙΡΟΥΡΓΙΚΉΣ|ΩΤΟΡΙΝΟΛΑΡΥΓΓΟΛΌΓΟΙ|ΟΓΚΟΛΌΓΟΙ|ΕΝΤΑΤΙΚΟΛΌΓΟΙ|ΧΩΡΊΣ ΕΙΔΙΚΌΤΗΤΑ,2108225411,info@attikomed.gr,https://attikomed.gr/,31/12/2023,22/04/2026,1,
EL_GR0138,ΒΟΥΓΙΟΥΚΛΑΚΕΙΟ ΔΙΑΓΝΩΣΤΙΚΟ & ΘΕΡΑΠΕΥΤΙΚΟ ΚΕΝΤΡO,,37.992573,23.68071,,,12242,ΑΙΓΑΛΕΩ,ΣΜΥΡΝΗΣ 36,EL,NO,,,,ΓΕΝΙΚΑ ΝΟΣΟΚΟΜΕΙΑ,PRIVATE,ΑΙΜΑΤΟΛΌΓΟΙ|ΑΚΤΙΝΟΔΙΑΓΝΩΣΤΈΣ (ΑΚΤΙΝ. - ΡΑΔ.)|ΑΝΑΙΣΘΗΣΙΟΛΌΓΟΙ|ΓΑΣΤΡΕΝΤΕΡΟΛΌΓΟΙ|ΓΕΝΙΚΉΣ ΙΑΤΡΙΚΉΣ|ΔΕΡΜΑΤΟΛΌΓΟΙ - ΑΦΡΟΔΙΣΙΟΛΌΓΟΙ|ΕΝΔΟΚΡΙΝΟΛΌΓΟΙ|ΙΑΤΡΙΚΉΣ ΤΗΣ ΕΡΓΑΣΊΑΣ|ΚΑΡΔΙΟΛΌΓΟΙ|ΜΑΙΕΥΤΉΡΕΣ - ΓΥΝΑΙΚΟΛΌΓΟΙ|ΝΕΥΡΟΛΌΓΟΙ|ΝΕΥΡΟΧΕΙΡΟΥΡΓΟΊ|ΝΕΦΡΟΛΌΓΟΙ|ΟΔΟΝΤΊΑΤΡΟΙ|ΟΡΘΟΠΕΔΙΚΟΊ|ΟΥΡΟΛΌΓΟΙ|ΟΦΘΑΛΜΊΑΤΡΟΙ|ΠΑΘΟΛΌΓΟΙ|ΡΕΥΜΑΤΟΛΌΓΟΙ|ΦΥΜΑΤΙΟΛΌΓΟΙ - ΠΝΕΥΜΟΝΟΛΌΓΟΙ|ΧΕΙΡΟΥΡΓΟΊ ΓΕΝΙΚΉΣ ΧΕΙΡΟΥΡΓΙΚΉΣ|ΩΤΟΡΙΝΟΛΑΡΥΓΓΟΛΌΓΟΙ|ΑΓΓΕΙΟΧΕΙΡΟΥΡΓΟΊ|ΓΝΑΘΟΧΕΙΡΟΥΡΓΟΊ|ΟΓΚΟΛΌΓΟΙ|ΕΝΤΑΤΙΚΟΛΌΓΟΙ|ΧΩΡΊΣ ΕΙΔΙΚΌΤΗΤΑ,2105906611,gram_ex@vougiouklakio.gr,https://www.vougiouklakio.gr/,31/12/2023,22/04/2026,1,
EL_GR0139,ΒΙΟΚΛΙΝΙΚΗ ΑΘΗΝΩΝ Α.Ε.,,37.994812,23.76516,,,11524,ΑΘΗΝΑ,ΓΕΡΟΥΛΑΝΟΥ 15,EL,NO,,,,ΓΕΝΙΚΑ ΝΟΣΟΚΟΜΕΙΑ,PRIVATE,ΑΙΜΑΤΟΛΌΓΟΙ|ΑΚΤΙΝΟΔΙΑΓΝΩΣΤΈΣ (ΑΚΤΙΝ. - ΡΑΔ.)|ΑΛΛΕΡΓΙΟΛΌΓΟΙ|ΑΝΑΙΣΘΗΣΙΟΛΌΓΟΙ|ΓΑΣΤΡΕΝΤΕΡΟΛΌΓΟΙ|ΔΕΡΜΑΤΟΛΌΓΟΙ - ΑΦΡΟΔΙΣΙΟΛΌΓΟΙ|ΕΝΔΟΚΡΙΝΟΛΌΓΟΙ|ΚΑΡΔΙΟΛΌΓΟΙ|ΚΥΤΤΑΡΟΛΌΓΟΙ|ΜΑΙΕΥΤΉΡΕΣ - ΓΥΝΑΙΚΟΛΌΓΟΙ|ΜΙΚΡΟΒΙΟΛΌΓΟΙ|ΝΕΥΡΟΛΌΓΟΙ|ΝΕΥΡΟΧΕΙΡΟΥΡΓΟΊ|ΝΕΦΡΟΛΌΓΟΙ|ΟΡΘΟΠΕΔΙΚΟΊ|ΟΥΡΟΛΌΓΟΙ|ΟΦΘΑΛΜΊΑΤΡΟΙ|ΠΑΘΟΛΟΓΟΑΝΑΤΌΜΟΙ|ΠΑΘΟΛΌΓΟΙ|ΠΥΡΗΝΙΚΉΣ ΙΑΤΡΙΚΉΣ|ΡΕΥΜΑΤΟΛΌΓΟΙ|ΦΥΜΑΤΙΟΛΌΓΟΙ - ΠΝΕΥΜΟΝΟΛΌΓΟΙ|ΧΕΙΡΟΥΡΓΟΊ ΓΕΝΙΚΉΣ ΧΕΙΡΟΥΡΓΙΚΉΣ|ΧΕΙΡΟΥΡΓΟΊ ΘΏΡΑΚΑ|ΧΕΙΡΟΥΡΓΟΊ ΠΛΑΣΤΙΚΉΣ ΧΕΙΡΟΥΡΓΙΚΉΣ|ΩΤΟΡΙΝΟΛΑΡΥΓΓΟΛΌΓΟΙ|ΑΓΓΕΙΟΧΕΙΡΟΥΡΓΟΊ|ΓΝΑΘΟΧΕΙΡΟΥΡΓΟΊ|ΕΝΤΑΤΙΚΟΛΌΓΟΙ.ΧΩΡΊΣ ΕΙΔΙΚΌΤΗΤΑ,2106962600,ath.bioclinic@bioclinic.gr,https://bioclinic.gr/bioclinic-athens/,31/12/2023,22/04/2026,1,
EL_GR0140,MEDITERRANEO HOSPITAL,,37.885586,23.74703,,,16675,ΓΛΥΦΑΔΑ,ΗΛΕΙΑΣ 10,EL,YES,,,,ΓΕΝΙΚΑ ΝΟΣΟΚΟΜΕΙΑ,PRIVATE,ΑΚΤΙΝΟΘΕΡΑΠΕΥΤΈΣ|ΑΚΤΙΝΟΔΙΑΓΝΩΣΤΈΣ (ΑΚΤΙΝ. - ΡΑΔ.)|ΑΝΑΙΣΘΗΣΙΟΛΌΓΟΙ|ΓΑΣΤΡΕΝΤΕΡΟΛΌΓΟΙ|ΚΑΡΔΙΟΛΌΓΟΙ|ΜΑΙΕΥΤΉΡΕΣ - ΓΥΝΑΙΚΟΛΌΓΟΙ|ΜΙΚΡΟΒΙΟΛΌΓΟΙ|ΝΕΥΡΟΛΌΓΟΙ|ΝΕΥΡΟΧΕΙΡΟΥΡΓΟΊ|ΝΕΦΡΟΛΌΓΟΙ|ΟΔΟΝΤΊΑΤΡΟΙ|ΟΡΘΟΠΕΔΙΚΟΊ|ΟΥΡΟΛΌΓΟΙ|ΟΦΘΑΛΜΊΑΤΡΟΙ|ΠΑΘΟΛΟΓΟΑΝΑΤΌΜΟΙ|ΠΑΘΟΛΌΓΟΙ|ΦΥΜΑΤΙΟΛΌΓΟΙ - ΠΝΕΥΜΟΝΟΛΌΓΟΙ|ΦΥΣΙΚΉΣ ΙΑΤΡΙΚΉΣ ΚΑΙ ΑΠΟΚΑΤΆΣΤΑΣΗΣ|ΧΕΙΡΟΥΡΓΟΊ ΓΕΝΙΚΉΣ ΧΕΙΡΟΥΡΓΙΚΉΣ|ΧΕΙΡΟΥΡΓΟΊ ΘΏΡΑΚΑ|ΧΕΙΡΟΥΡΓΟΊ ΠΛΑΣΤΙΚΉΣ ΧΕΙΡΟΥΡΓΙΚΉΣ|ΩΤΟΡΙΝΟΛΑΡΥΓΓΟΛΌΓΟΙ|ΑΓΓΕΙΟΧΕΙΡΟΥΡΓΟΊ|ΧΩΡΊΣ ΕΙΔΙΚΌΤΗΤΑ,2109117000,info@mediterraneohospital.gr,https://mediterraneohospital.gr/,31/12/2023,22/04/2026,1,
EL_GR0164,ΚΛΙΝΙΚΗ ΛΥΡΑΚΟΥ Α.Ε.,,38.060722,23.85102,,,15236,ΜΕΛΙΣΣΙΑ,ΑΓ.ΣΥΛΛΑ 7,EL,ΝΟ,,,,ΝΕΥΡΟΨΥΧΙΑΤΡΙΚΑ,PRIVATE,ΜΙΚΡΟΒΙΟΛΌΓΟΙ|ΠΑΘΟΛΌΓΟΙ|ΨΥΧΊΑΤΡΟΙ|ΧΩΡΊΣ ΕΙΔΙΚΌΤΗΤΑ,2106131802,info@lyrakou.gr,https://www.klinikilyrakou.gr/,31/12/2023,22/04/2026,1,
EL_GR0141,"""ΘΕΡΑΠΕΥΤΗΡΙΟ ΑΘΗΝΩΝ"" ΓΕΩΡΓΙΑΔΗΣ-ΔΡΑΚΟΠΟΥΛΟΣ Ι.Κ.Ε.",,37.996925,23.73401,,,11257,ΑΘΗΝΑ-ΚΥΨΕΛΗ,Ι.ΔΡΟΣΟΠΟΥΛΟΥ 24,EL,NO,,,,ΓΕΝΙΚΑ ΝΟΣΟΚΟΜΕΙΑ,PRIVATE,ΑΙΜΑΤΟΛΌΓΟΙ|ΑΚΤΙΝΟΔΙΑΓΝΩΣΤΈΣ (ΑΚΤΙΝ. - ΡΑΔ.)|ΑΝΑΙΣΘΗΣΙΟΛΌΓΟΙ|ΓΑΣΤΡΕΝΤΕΡΟΛΌΓΟΙ|ΓΕΝΙΚΉΣ ΙΑΤΡΙΚΉΣ|ΔΕΡΜΑΤΟΛΌΓΟΙ - ΑΦΡΟΔΙΣΙΟΛΌΓΟΙ|ΕΝΔΟΚΡΙΝΟΛΌΓΟΙ|ΙΑΤΡΙΚΉΣ ΤΗΣ ΕΡΓΑΣΊΑΣ|ΚΑΡΔΙΟΛΌΓΟΙ|ΜΑΙΕΥΤΉΡΕΣ - ΓΥΝΑΙΚΟΛΌΓΟΙ|ΜΙΚΡΟΒΙΟΛΌΓΟΙ|ΝΕΥΡΟΛΌΓΟΙ|ΝΕΦΡΟΛΌΓΟΙ|ΟΡΘΟΠΕΔΙΚΟΊ|ΟΥΡΟΛΌΓΟΙ|ΠΑΘΟΛΟΓΟΑΝΑΤΌΜΟΙ|ΠΑΘΟΛΌΓΟΙ|ΡΕΥΜΑΤΟΛΌΓΟΙ|ΦΥΜΑΤΙΟΛΌΓΟΙ - ΠΝΕΥΜΟΝΟΛΌΓΟΙ|ΧΕΙΡΟΥΡΓΟΊ ΓΕΝΙΚΉΣ ΧΕΙΡΟΥΡΓΙΚΉΣΧΕΙΡΟΥΡΓΟΊ ΠΛΑΣΤΙΚΉΣ ΧΕΙΡΟΥΡΓΙΚΉΣ|ΩΤΟΡΙΝΟΛΑΡΥΓΓΟΛΌΓΟΙ|ΟΓΚΟΛΌΓΟΙ|ΕΝΤΑΤΙΚΟΛΌΓΟΙ|ΕΠΕΙΓΟΝΤΟΛΌΓΟΙ|ΧΩΡΊΣ ΕΙΔΙΚΌΤΗΤΑ,2108224562,info@athenshospital.gr,https://www.athenshospital.gr/,31/12/2023,22/04/2026,1,
EL_GR0142,DOCTORS HOSPITAL,,37.998889,23.73536,,,11257,ΑΘΗΝΑ,ΚΕΦΑΛΛΗΝΙΑΣ 26,EL,YES,,,,ΓΕΝΙΚΑ ΝΟΣΟΚΟΜΕΙΑ,PRIVATE,ΑΙΜΑΤΟΛΌΓΟΙ|ΑΚΤΙΝΟΔΙΑΓΝΩΣΤΈΣ (ΑΚΤΙΝ. - ΡΑΔ.)|ΑΝΑΙΣΘΗΣΙΟΛΌΓΟΙ|ΓΑΣΤΡΕΝΤΕΡΟΛΌΓΟΙ|ΓΕΝΙΚΉΣ ΙΑΤΡΙΚΉΣ|ΕΝΔΟΚΡΙΝΟΛΌΓΟΙ|ΚΑΡΔΙΟΛΌΓΟΙ|ΜΑΙΕΥΤΉΡΕΣ - ΓΥΝΑΙΚΟΛΌΓΟΙ|ΝΕΥΡΟΛΌΓΟΙ|ΝΕΥΡΟΧΕΙΡΟΥΡΓΟΊ|ΟΡΘΟΠΕΔΙΚΟΊ|ΟΥΡΟΛΌΓΟΙΠΑΘΟΛΌΓΟΙ|ΡΕΥΜΑΤΟΛΌΓΟΙ|ΦΥΜΑΤΙΟΛΌΓΟΙ - ΠΝΕΥΜΟΝΟΛΌΓΟΙ|ΧΕΙΡΟΥΡΓΟΊ ΓΕΝΙΚΉΣ ΧΕΙΡΟΥΡΓΙΚΉΣ|ΧΕΙΡΟΥΡΓΟΊ ΘΏΡΑΚΑ|ΩΤΟΡΙΝΟΛΑΡΥΓΓΟΛΌΓΟΙ|ΟΓΚΟΛΌΓΟΙ|ΕΝΤΑΤΙΚΟΛΌΓΟΙ|ΧΩΡΊΣ ΕΙΔΙΚΌΤΗΤΑ,2108807000,info@doctorshospital.gr,https://www.doctorshospital.gr/,31/12/2023,22/04/2026,1,
EL_GR0143,ΚΛΙΝΙΚΗ ΛΕΥΚΟΣ ΣΤΑΥΡΟΣ ΑΘΗΝΩΝ Α.Ε.,,37.978224,23.75409,,,11528,ΑΘΗΝΑ,ΣΙΣΙΝΗ 1-3,EL,YES,,,,ΓΕΝΙΚΑ ΝΟΣΟΚΟΜΕΙΑ,PRIVATE,ΑΙΜΑΤΟΛΌΓΟΙ|ΑΚΤΙΝΟΔΙΑΓΝΩΣΤΈΣ (ΑΚΤΙΝ. - ΡΑΔ.)|ΑΝΑΙΣΘΗΣΙΟΛΌΓΟΙ|ΓΑΣΤΡΕΝΤΕΡΟΛΌΓΟΙ|ΓΕΝΙΚΉΣ ΙΑΤΡΙΚΉΣ|ΕΝΔΟΚΡΙΝΟΛΌΓΟΙ|ΙΑΤΡΙΚΉΣ ΤΗΣ ΕΡΓΑΣΊΑΣ|ΚΑΡΔΙΟΛΌΓΟΙ|ΚΥΤΤΑΡΟΛΌΓΟΙ|ΜΑΙΕΥΤΉΡΕΣ - ΓΥΝΑΙΚΟΛΌΓΟΙ|ΜΙΚΡΟΒΙΟΛΌΓΟΙ|ΝΕΥΡΟΛΌΓΟΙ|ΝΕΥΡΟΧΕΙΡΟΥΡΓΟΊ|ΝΕΦΡΟΛΌΓΟΙ|ΟΡΘΟΠΕΔΙΚΟΊ|ΟΥΡΟΛΌΓΟΙ|ΠΑΘΟΛΟΓΟΑΝΑΤΌΜΟΙ|ΠΑΘΟΛΌΓΟΙ|ΡΕΥΜΑΤΟΛΌΓΟΙ|ΦΥΜΑΤΙΟΛΌΓΟΙ - ΠΝΕΥΜΟΝΟΛΌΓΟΙ|ΧΕΙΡΟΥΡΓΟΊ ΓΕΝΙΚΉΣ ΧΕΙΡΟΥΡΓΙΚΉΣ|ΧΕΙΡΟΥΡΓΟΊ ΘΏΡΑΚΑ|ΧΕΙΡΟΥΡΓΟΊ ΠΛΑΣΤΙΚΉΣ ΧΕΙΡΟΥΡΓΙΚΉΣ|ΩΤΟΡΙΝΟΛΑΡΥΓΓΟΛΌΓΟΙ|ΑΓΓΕΙΟΧΕΙΡΟΥΡΓΟΊ|ΓΝΑΘΟΧΕΙΡΟΥΡΓΟΊ|ΟΓΚΟΛΌΓΟΙ|ΕΝΤΑΤΙΚΟΛΌΓΟΙ|ΧΩΡΊΣ ΕΙΔΙΚΌΤΗΤΑ,2107253961,info@lefkosstavros.gr,https://lefkosstavros.gr/,31/12/2023,22/04/2026,1,
EL_GR0144,ΙΑΤΡΙΚΟ ΑΘΗΝΩΝ Ε.Α.Ε.,,38.043288,23.8055,,,15125,ΜΑΡΟΥΣΙ,ΔΙΣΤΟΜΟΥ 5-7,EL,YES,,,,ΓΕΝΙΚΑ ΝΟΣΟΚΟΜΕΙΑ,PRIVATE,ΑΙΜΑΤΟΛΌΓΟΙ|ΑΚΤΙΝΟΘΕΡΑΠΕΥΤΈΣ|ΑΚΤΙΝΟΔΙΑΓΝΩΣΤΈΣ (ΑΚΤΙΝ. - ΡΑΔ.)|ΑΛΛΕΡΓΙΟΛΌΓΟΙ|ΑΝΑΙΣΘΗΣΙΟΛΌΓΟΙ|ΓΑΣΤΡΕΝΤΕΡΟΛΌΓΟΙ|ΓΕΝΙΚΉΣ ΙΑΤΡΙΚΉΣ|ΔΕΡΜΑΤΟΛΌΓΟΙ - ΑΦΡΟΔΙΣΙΟΛΌΓΟΙ|ΕΝΔΟΚΡΙΝΟΛΌΓΟΙ|ΙΑΤΡΙΚΉΣ ΤΗΣ ΕΡΓΑΣΊΑΣ|ΚΑΡΔΙΟΛΌΓΟΙ|ΚΥΤΤΑΡΟΛΌΓΟΙ|ΜΑΙΕΥΤΉΡΕΣ - ΓΥΝΑΙΚΟΛΌΓΟΙ|ΜΙΚΡΟΒΙΟΛΌΓΟΙ|ΝΕΥΡΟΛΌΓΟΙ|ΝΕΥΡΟΧΕΙΡΟΥΡΓΟΊ|ΝΕΦΡΟΛΌΓΟΙ|ΟΔΟΝΤΊΑΤΡΟΙ|ΟΡΘΟΠΕΔΙΚΟΊ|ΟΥΡΟΛΌΓΟΙ|ΟΦΘΑΛΜΊΑΤΡΟΙ|ΠΑΘΟΛΟΓΟΑΝΑΤΌΜΟΙ|ΠΑΘΟΛΌΓΟΙ|ΠΑΙΔΊΑΤΡΟΙ|ΠΥΡΗΝΙΚΉΣ ΙΑΤΡΙΚΉΣ|ΦΥΜΑΤΙΟΛΌΓΟΙ - ΠΝΕΥΜΟΝΟΛΌΓΟΙ|ΦΥΣΙΚΉΣ ΙΑΤΡΙΚΉΣ ΚΑΙ ΑΠΟΚΑΤΆΣΤΑΣΗΣ|ΧΕΙΡΟΥΡΓΟΊ ΓΕΝΙΚΉΣ ΧΕΙΡΟΥΡΓΙΚΉΣ|ΧΕΙΡΟΥΡΓΟΊ ΘΏΡΑΚΑ|ΧΕΙΡΟΥΡΓΟΊ ΠΑΊΔΩΝ|ΧΕΙΡΟΥΡΓΟΊ ΠΛΑΣΤΙΚΉΣ ΧΕΙΡΟΥΡΓΙΚΉΣ|ΩΤΟΡΙΝΟΛΑΡΥΓΓΟΛΌΓΟΙ|ΑΓΓΕΙΟΧΕΙΡΟΥΡΓΟΊ|ΟΓΚΟΛΌΓΟΙ|ΕΝΤΑΤΙΚΟΛΌΓΟΙ|ΙΑΤΡΙΚΉΣ ΓΕΝΕΤΙΚΉΣ|ΧΩΡΊΣ ΕΙΔΙΚΌΤΗΤΑ,2106198100,,https://www.iatriko.gr/?cl=609,31/12/2023,22/04/2026,1,
