{"type": "FeatureCollection", "features": [{"type": "Feature", "geometry": {"type": "Point", "coordinates": [-3.7038, 40.4168]}, "properties": {"name": "NAP de las Americas Madrid", "company": "Terremark", "city": "Madrid", "state": "", "country": "Spain", "address": "Calle de Yecora, 4 28009 Madrid Spain"}}, {"type": "Feature", "geometry": {"type": "Point", "coordinates": [103.8198, -1.3521]}, "properties": {"name": "Central Office 2", "company": "StarHub Ltd.", "city": "Singapore", "state": "", "country": "Singapore", "address": "19 Tai Seng Dr 535222 Singapore Singapore"}}, {"type": "Feature", "geometry": {"type": "Point", "coordinates": [23.5919947, 46.7871608]}, "properties": {"name": "Cluj-Napoca", "company": "GTS Telecom SRL", "city": "Cluj-Napoca", "state": "", "country": "Romania", "address": "Str. Garii nr. 21 400267 Cluj-Napoca Romania"}}, {"type": "Feature", "geometry": {"type": "Point", "coordinates": [-0.0688659, 5.9057032]}, "properties": {"name": "Etix Accra #1", "company": "Etix Everywhere", "city": "Accra", "state": "", "country": "Ghana", "address": "R40 Accra Ghana"}}, {"type": "Feature", "geometry": {"type": "Point", "coordinates": [8.3848499, 48.9996891]}, "properties": {"name": "Karlsruhe", "company": "1&1 Internet, Inc.", "city": "Karlsruhe", "state": "", "country": "Germany", "address": "Brauerstra\u00dfe 48 76135 Karlsruhe Germany"}}, {"type": "Feature", "geometry": {"type": "Point", "coordinates": [47.9119937, 29.2971097]}, "properties": {"name": "National Bank of Kuwait", "company": "National Bank of Kuwait (NBK)", "city": "Farwaniya", "state": "", "country": "Kuwait", "address": "Block 1\u060c Fifth Ring road Farwaniya Kuwait"}}, {"type": "Feature", "geometry": {"type": "Point", "coordinates": [-121.8863, 37.3382]}, "properties": {"name": "Silicon Valley Data Center", "company": "Fibernet", "city": "San", "state": "California", "country": "United States", "address": "250 Stockton Ave 95126-2761 San Jose USA"}}, {"type": "Feature", "geometry": {"type": "Point", "coordinates": [-0.1278, 51.5074]}, "properties": {"name": "1 Brick Lane", "company": "Interoute", "city": "London", "state": "", "country": "United Kingdom", "address": "1 Brick Ln E1 6PU London UK"}}, {"type": "Feature", "geometry": {"type": "Point", "coordinates": [103.8198, -1.3521]}, "properties": {"name": "1 Changi Business Park Avenue 1", "company": "Satyam Computer Services", "city": "Singapore", "state": "", "country": "Singapore", "address": "1 Changi Business Park Ave 1, #04-02 Ultro Building 486058 Singapore Singapore"}}, {"type": "Feature", "geometry": {"type": "Point", "coordinates": [-0.1593644, 51.2453634]}, "properties": {"name": "1 Foxboro Rd", "company": "Digital Realty Trust", "city": "Redhill", "state": "", "country": "United Kingdom", "address": "1 Foxboro Rd RH1 1TD Redhill UK"}}, {"type": "Feature", "geometry": {"type": "Point", "coordinates": [-0.1278, 51.5074]}, "properties": {"name": "1 Greenwich View Place", "company": "CBRE", "city": "London", "state": "", "country": "United Kingdom", "address": "1 Greenwich View E14 9NN London UK"}}, {"type": "Feature", "geometry": {"type": "Point", "coordinates": [-71.0589, 42.3601]}, "properties": {"name": "1 Summer St.", "company": "Zayo Group LLC", "city": "Boston", "state": "Massachusetts", "country": "United States", "address": "1 Summer St, 7th Floor 02110 Boston USA"}}, {"type": "Feature", "geometry": {"type": "Point", "coordinates": [144.9631, -37.8136]}, "properties": {"name": "1 Tarver Street", "company": "Interactive", "city": "Melbourne", "state": "", "country": "Australia", "address": "1 Tarver Street Port Melbourne Australia"}}, {"type": "Feature", "geometry": {"type": "Point", "coordinates": [-0.7702636, 51.3313373]}, "properties": {"name": "1 \u0096 Camberley", "company": "Sentrum", "city": "Camberley", "state": "", "country": "United Kingdom", "address": "Stanhope Road GU15 3DW Camberley United Kingdom"}}, {"type": "Feature", "geometry": {"type": "Point", "coordinates": [150.796101, -33.8179371]}, "properties": {"name": "1-21 Templar Road", "company": "Digital Realty Trust", "city": "Erskine", "state": "", "country": "Australia", "address": "1-11 Templar Rd 2759 Erskine Park Australia"}}, {"type": "Feature", "geometry": {"type": "Point", "coordinates": [103.8198, -1.3521]}, "properties": {"name": "1-Net East", "company": "1-Net Singapore Pte Ltd", "city": "Singapore", "state": "", "country": "Singapore", "address": "Technopark, 750 Estuary Chai Chee Road 469005 Singapore Singapore"}}, {"type": "Feature", "geometry": {"type": "Point", "coordinates": [103.8198, -1.3521]}, "properties": {"name": "1-Net North", "company": "1-Net Singapore Pte Ltd", "city": "Singapore", "state": "", "country": "Singapore", "address": "Marsiling Road 739144 Singapore Singapore"}}, {"type": "Feature", "geometry": {"type": "Point", "coordinates": [103.8198, -1.3521]}, "properties": {"name": "1-Net North", "company": "1-Net Singapore Pte Ltd", "city": "Singapore", "state": "", "country": "Singapore", "address": "10 Tampines Central 1 529536 Singapore Singapore"}}, {"type": "Feature", "geometry": {"type": "Point", "coordinates": [1.4874351, 43.6254898]}, "properties": {"name": "10 Rue des Freres Peugeot", "company": "Zayo Group LLC", "city": "Balma", "state": "", "country": "France", "address": "10 Rue des Freres Peugeot ZI Vidailhan 31130 Balma France"}}, {"type": "Feature", "geometry": {"type": "Point", "coordinates": [-87.6298, 41.8781]}, "properties": {"name": "10 South Canal St.", "company": "Brookfield Infrastructure Partners LP", "city": "Chicago", "state": "Illinois", "country": "United States", "address": "10 S Canal St 60606-3739 Chicago USA"}}, {"type": "Feature", "geometry": {"type": "Point", "coordinates": [-74.12675, 40.8299306]}, "properties": {"name": "100 Delawanna Avenue", "company": "Digital Realty Trust", "city": "Clifton", "state": "New Jersey", "country": "United States", "address": "100 Delawanna Ave 07014 Clifton USA"}}, {"type": "Feature", "geometry": {"type": "Point", "coordinates": [153.0251, -27.4698]}, "properties": {"name": "100 Wickham", "company": "Over the Wire Pty. Ltd.", "city": "Brisbane", "state": "", "country": "Australia", "address": "100 Wickham St, Fortitude Valley 4000 Brisbane Australia"}}, {"type": "Feature", "geometry": {"type": "Point", "coordinates": [-0.888005, 51.4387515]}, "properties": {"name": "1000 Eskdale Rd", "company": "Cyxtera", "city": "Eskdale", "state": "", "country": "United Kingdom", "address": "1000 Eskdale Rd RG41 Wokingham UK"}}, {"type": "Feature", "geometry": {"type": "Point", "coordinates": [-84.2941, 34.0754]}, "properties": {"name": "1001 Windward Concourse", "company": "Mapletree Redwood Data Centre Trust (MRDCT)", "city": "Alpharetta", "state": "Georgia", "country": "United States", "address": "1001 Windward Concourse 30005-4154 Alpharetta USA"}}, {"type": "Feature", "geometry": {"type": "Point", "coordinates": [-84.5797393, 33.7465626]}, "properties": {"name": "101 Aquila Way", "company": "Digital Realty Trust", "city": "Austell", "state": "Georgia", "country": "United States", "address": "101 Aquila Way 30168 Austell United States"}}, {"type": "Feature", "geometry": {"type": "Point", "coordinates": [-104.8238012, 38.8355488]}, "properties": {"name": "102 S. Tejon", "company": "Data102", "city": "Colorado", "state": "Colorado", "country": "United States", "address": "102 S. Tejon 80903 Colorado Springs United States"}}, {"type": "Feature", "geometry": {"type": "Point", "coordinates": [-71.2195652, 42.302236]}, "properties": {"name": "105 Cabot St.", "company": "Digital Realty Trust", "city": "States", "state": "", "country": "United States", "address": "105 Cabot St. Needham United States"}}, {"type": "Feature", "geometry": {"type": "Point", "coordinates": [-73.7520746, 42.6500293]}, "properties": {"name": "11 North Pearl", "company": "The Heights Real Estate Company", "city": "Albany", "state": "New York", "country": "United States", "address": "11 N Pearl St 12207 Albany USA"}}, {"type": "Feature", "geometry": {"type": "Point", "coordinates": [-96.797, 32.7767]}, "properties": {"name": "1100 Empire Central Place", "company": "Zayo Group LLC", "city": "Dallas", "state": "Texas", "country": "United States", "address": "1100 Empire Central Pl 75247-4306 Dallas USA"}}, {"type": "Feature", "geometry": {"type": "Point", "coordinates": [-121.9552, 37.3541]}, "properties": {"name": "1100 Space Park Drive", "company": "Digital Realty Trust", "city": "Space", "state": "", "country": "United States", "address": "1100 Space Park Drive Santa Clara United States"}}, {"type": "Feature", "geometry": {"type": "Point", "coordinates": [-84.388, 33.749]}, "properties": {"name": "1100 White St. SW", "company": "Zayo Group LLC", "city": "Atlanta", "state": "Georgia", "country": "United States", "address": "1100 White St SW 30310-2636 Atlanta USA"}}, {"type": "Feature", "geometry": {"type": "Point", "coordinates": [-121.9552, 37.3541]}, "properties": {"name": "1101 Space Park Drive", "company": "Colovore", "city": "Space", "state": "", "country": "United States", "address": "1101 Space Park Drive Santa Clara United States"}}, {"type": "Feature", "geometry": {"type": "Point", "coordinates": [-94.5786, 39.0997]}, "properties": {"name": "1102 Grand", "company": "Netrality", "city": "Kansas", "state": "Missouri", "country": "United States", "address": "1102 Grand Blvd 64106 Kansas City USA"}}, {"type": "Feature", "geometry": {"type": "Point", "coordinates": [-121.2707894, 38.5952814]}, "properties": {"name": "11085 Sun Center Drive", "company": "Carter Validus Mission Critical REIT", "city": "Rancho", "state": "California", "country": "United States", "address": "Sun Center Dr 11085 95670 Rancho Cordova United States"}}, {"type": "Feature", "geometry": {"type": "Point", "coordinates": [-74.006, 40.7128]}, "properties": {"name": "111 8th Avenue", "company": "Zayo Group LLC", "city": "New", "state": "New York", "country": "United States", "address": "111 8th Avenue 10011 New York United States"}}, {"type": "Feature", "geometry": {"type": "Point", "coordinates": [-74.006, 40.7128]}, "properties": {"name": "111 8th Avenue", "company": "Digital Realty Trust", "city": "New", "state": "New York", "country": "United States", "address": "111 8th Ave, Suite 307 10011 New York USA"}}, {"type": "Feature", "geometry": {"type": "Point", "coordinates": [-74.006, 40.7128]}, "properties": {"name": "111 8th Avenue", "company": "Equinix", "city": "New", "state": "New York", "country": "United States", "address": "111 8th Ave 10011 New York USA"}}, {"type": "Feature", "geometry": {"type": "Point", "coordinates": [-74.0337522, 40.7263131]}, "properties": {"name": "111 Town Square Place", "company": "Atlas Communications Ltd.", "city": "City", "state": "New Jersey", "country": "United States", "address": "111 Town Square Pl NJ 07310 Jersey City United States"}}, {"type": "Feature", "geometry": {"type": "Point", "coordinates": [-93.607249, 44.801033]}, "properties": {"name": "11191 Victoria Drive", "company": "CBRE", "city": "Chaska", "state": "Minnesota", "country": "United States", "address": "11191 Victoria Drive 55318 Chaska United States"}}, {"type": "Feature", "geometry": {"type": "Point", "coordinates": [-122.3321, 47.6062]}, "properties": {"name": "1122 Third Ave.", "company": "Brookfield Infrastructure Partners LP", "city": "Seattle", "state": "Washington", "country": "United States", "address": "1122 3rd Ave 98101 Seattle USA"}}, {"type": "Feature", "geometry": {"type": "Point", "coordinates": [-95.3698, 29.7604]}, "properties": {"name": "1124 Hardy Rd", "company": "CenturyLink", "city": "Houston", "state": "Texas", "country": "United States", "address": "1124 Hardy Rd 77020 Houston United States"}}, {"type": "Feature", "geometry": {"type": "Point", "coordinates": [-93.147235, 44.9706138]}, "properties": {"name": "1125 Energy Park Drive", "company": "Digital Realty Trust", "city": "Drive", "state": "Minnesota", "country": "United States", "address": "1125 Energy Park Drive MN 55108 St. Paul United States"}}, {"type": "Feature", "geometry": {"type": "Point", "coordinates": [-80.8431, 35.2271]}, "properties": {"name": "113 N Myers", "company": "Digital Realty Trust", "city": "Myers", "state": "North Carolina", "country": "United States", "address": "113 N Myers NC 28202 Charlotte United States"}}, {"type": "Feature", "geometry": {"type": "Point", "coordinates": [-71.2654147, 42.3930594]}, "properties": {"name": "115 Second Avenue", "company": "Digital Realty Trust", "city": "Avenue", "state": "Massachusetts", "country": "United States", "address": "115 Second Avenue MA 02451 Waltham United States"}}, {"type": "Feature", "geometry": {"type": "Point", "coordinates": [-84.388, 33.749]}, "properties": {"name": "1150 White Street SW", "company": "Zayo Group LLC", "city": "Atlanta", "state": "Georgia", "country": "United States", "address": "1150 White St SW 30310 Atlanta USA"}}, {"type": "Feature", "geometry": {"type": "Point", "coordinates": [-80.1918, 25.7617]}, "properties": {"name": "11500 NW 25th Street", "company": "Cable&Wireless Worldwide", "city": "6/7", "state": "Florida", "country": "United States", "address": "11500 NW 25th Street, NW 117th Avenue, Building 6/7 FL 33172 Miami United States"}}, {"type": "Feature", "geometry": {"type": "Point", "coordinates": [-105.073119, 39.9051013]}, "properties": {"name": "11525 Main Street", "company": "Lincoln Rackhouse", "city": "Broomfield", "state": "Colorado", "country": "United States", "address": "11525 Main St 80020 Broomfield USA"}}, {"type": "Feature", "geometry": {"type": "Point", "coordinates": [-96.797, 32.7767]}, "properties": {"name": "11830 Webb Chapel Road", "company": "Digital Realty Trust", "city": "Road", "state": "Texas", "country": "United States", "address": "11830 Webb Chapel Road TX 75234 Dallas United States"}}, {"type": "Feature", "geometry": {"type": "Point", "coordinates": [-104.8654208, 39.6616992]}, "properties": {"name": "11900 E Cornell Ave", "company": "Digital Realty Trust", "city": "Aurora", "state": "Colorado", "country": "United States", "address": "E Cornell Ave 11900 80014 Aurora United States"}}, {"type": "Feature", "geometry": {"type": "Point", "coordinates": [-112.074, 33.4484]}, "properties": {"name": "120 E. Van Buren", "company": "Digital Realty Trust", "city": "Phoenix", "state": "Arizona", "country": "United States", "address": "120 E. Van Buren 85004 Phoenix United States"}}, {"type": "Feature", "geometry": {"type": "Point", "coordinates": [-95.3698, 29.7604]}, "properties": {"name": "12001-12245 North Freeway", "company": "Digital Realty Trust", "city": "Freeway", "state": "Texas", "country": "United States", "address": "12001-12245 North Freeway TX 77060 Houston United States"}}, {"type": "Feature", "geometry": {"type": "Point", "coordinates": [-121.9552, 37.3541]}, "properties": {"name": "1201 Comstock", "company": "Digital Realty Trust", "city": "Santa", "state": "California", "country": "United States", "address": "1201 Comstock 95054 Santa Clara United States"}}, {"type": "Feature", "geometry": {"type": "Point", "coordinates": [-96.7299, 32.9483]}, "properties": {"name": "1210 Integrity Drive", "company": "Digital Realty Trust", "city": "Richardson", "state": "Texas", "country": "United States", "address": "1210 Integrity Dr 75081 Richardson USA"}}, {"type": "Feature", "geometry": {"type": "Point", "coordinates": [-96.7299, 32.9483]}, "properties": {"name": "1215 Integrity Drive", "company": "Digital Realty Trust", "city": "Richardson", "state": "Texas", "country": "United States", "address": "1215 Integrity Dr 75081 Richardson USA"}}, {"type": "Feature", "geometry": {"type": "Point", "coordinates": [-96.6989, 33.0198]}, "properties": {"name": "1221 Coit Road", "company": "Mapletree Redwood Data Centre Trust (MRDCT)", "city": "Plano", "state": "Texas", "country": "United States", "address": "1221 Coit Rd 75075-7761 Plano USA"}}, {"type": "Feature", "geometry": {"type": "Point", "coordinates": [-117.1611, 32.7157]}, "properties": {"name": "12270 World Trade Drive", "company": "redIT", "city": "World", "state": "New York", "country": "United States", "address": "12270 World Trade Drive San Diego United States"}}, {"type": "Feature", "geometry": {"type": "Point", "coordinates": [-117.1611, 32.7157]}, "properties": {"name": "12270 World Trade Drive", "company": "Zayo Group LLC", "city": "San", "state": "California", "country": "United States", "address": "12270 World Trade Dr 92128-3765 San Diego USA"}}, {"type": "Feature", "geometry": {"type": "Point", "coordinates": [153.0251, -27.4698]}, "properties": {"name": "123 Eagle Street, Level 8", "company": "AAPT", "city": "Brisbane", "state": "", "country": "Australia", "address": "123 Eagle Street, level 8 4000 Brisbane Australia"}}, {"type": "Feature", "geometry": {"type": "Point", "coordinates": [-96.7299, 32.9483]}, "properties": {"name": "1232 Alma Road", "company": "Digital Realty Trust", "city": "Road", "state": "Texas", "country": "United States", "address": "1232 Alma Road TX 75081 Richardson United States"}}, {"type": "Feature", "geometry": {"type": "Point", "coordinates": [-80.8431, 35.2271]}, "properties": {"name": "125 North Myers Street", "company": "Digital Realty Trust", "city": "Street", "state": "North Carolina", "country": "United States", "address": "125 North Myers Street NC 28202 Charlotte United States"}}, {"type": "Feature", "geometry": {"type": "Point", "coordinates": [-71.2218114, 42.3017877]}, "properties": {"name": "128 First Ave", "company": "Digital Realty Trust", "city": "Needham", "state": "Massachusetts", "country": "United States", "address": "128 1st Ave 02494 Needham USA"}}, {"type": "Feature", "geometry": {"type": "Point", "coordinates": [103.8198, -1.3521]}, "properties": {"name": "13 Tai Seng Drive", "company": "Nucleus Connet", "city": "Singapore", "state": "", "country": "Singapore", "address": "13 Tai Seng Dr 535219 Singapore Singapore"}}, {"type": "Feature", "geometry": {"type": "Point", "coordinates": [-74.2488997, 40.5838627]}, "properties": {"name": "1300 Federal Boulevard", "company": "Goldman Sachs", "city": "Boulevard", "state": "New Jersey", "country": "United States", "address": "1300 Federal Boulevard NJ Carteret United States"}}, {"type": "Feature", "geometry": {"type": "Point", "coordinates": [-95.3698, 29.7604]}, "properties": {"name": "1301 Fannin", "company": "Netrality", "city": "Houston", "state": "Texas", "country": "United States", "address": "1301 Fannin St 77002 Houston USA"}}, {"type": "Feature", "geometry": {"type": "Point", "coordinates": [-114.0719, 51.0447]}, "properties": {"name": "1313 Calgary", "company": "Pivot Data Centres", "city": "Calgary", "state": "", "country": "Canada", "address": "to be provided Calgary Canada"}}, {"type": "Feature", "geometry": {"type": "Point", "coordinates": [-122.0363, 37.3688]}, "properties": {"name": "1320 Kifer Rd", "company": "Cyxtera", "city": "Sunnyvale", "state": "California", "country": "United States", "address": "1320 Kifer Rd 94086 Sunnyvale USA"}}, {"type": "Feature", "geometry": {"type": "Point", "coordinates": [-87.6298, 41.8781]}, "properties": {"name": "1331 E Business Center Dr.", "company": "Unclaimed", "city": "Chicago", "state": "Illinois", "country": "United States", "address": "1331 E Business Center Dr. 60056 Chicago United States"}}, {"type": "Feature", "geometry": {"type": "Point", "coordinates": [-121.9552, 37.3541]}, "properties": {"name": "1350 Duane Avenue", "company": "Digital Realty Trust", "city": "Santa", "state": "California", "country": "United States", "address": "1350 Duane Avenue 95054 Santa Clara United States"}}, {"type": "Feature", "geometry": {"type": "Point", "coordinates": [-1.247045, 50.867845]}, "properties": {"name": "14 - Green Co", "company": "Green Colo Ltd", "city": "Fareham", "state": "", "country": "United Kingdom", "address": "Brunel Way PO15 5TX Fareham UK"}}, {"type": "Feature", "geometry": {"type": "Point", "coordinates": [-74.2433378, 40.5845104]}, "properties": {"name": "1400 Federal Boulevard", "company": "NASDAQ", "city": "Boulevard", "state": "New Jersey", "country": "United States", "address": "1400 Federal Boulevard NJ Carteret United States"}}, {"type": "Feature", "geometry": {"type": "Point", "coordinates": [-122.0363, 37.3688]}, "properties": {"name": "1400 Kifer Rd", "company": "Cyxtera", "city": "Sunnyvale", "state": "California", "country": "United States", "address": "1400 Kifer Rd 94086-5306 Sunnyvale USA"}}, {"type": "Feature", "geometry": {"type": "Point", "coordinates": [-87.6298, 41.8781]}, "properties": {"name": "141 West Jackson Boulevard", "company": "CME Group", "city": "States", "state": "", "country": "United States", "address": "141 West Jackson Boulevard Chicago United States"}}, {"type": "Feature", "geometry": {"type": "Point", "coordinates": [-88.0308469, 41.9925799]}, "properties": {"name": "1420 E Devon Ave", "company": "Digital Realty Trust", "city": "Elk", "state": "Illinois", "country": "United States", "address": "1420 E Devon Ave 60007 Elk Grove Village USA"}}, {"type": "Feature", "geometry": {"type": "Point", "coordinates": [3.8717041, 43.5846568]}, "properties": {"name": "143 Rue Emile Julien", "company": "Zayo Group LLC", "city": "Montpellier", "state": "", "country": "France", "address": "143 Rue Emile Julien 34070 Montpellier France"}}, {"type": "Feature", "geometry": {"type": "Point", "coordinates": [-122.1215, 47.674]}, "properties": {"name": "14520 NE 87th St", "company": "Griffin Capital Net Lease REIT", "city": "Redmond", "state": "Nebraska", "country": "United States", "address": "14520 NE 87th St WA 98052 Redmond United States"}}, {"type": "Feature", "geometry": {"type": "Point", "coordinates": [153.0314782, -27.4553685]}, "properties": {"name": "148 Brunswick", "company": "PIPE Networks", "city": "Fortitude", "state": "", "country": "Australia", "address": "148 Brunswick St 4006 Fortitude Valley Australia"}}, {"type": "Feature", "geometry": {"type": "Point", "coordinates": [-121.8863, 37.3382]}, "properties": {"name": "150 South First Street", "company": "Digital Realty Trust", "city": "States", "state": "", "country": "United States", "address": "150 South First Street San Jose United States"}}, {"type": "Feature", "geometry": {"type": "Point", "coordinates": [-104.9903, 39.7392]}, "properties": {"name": "1500 Champa Street", "company": "Zayo Group LLC", "city": "Street", "state": "Colorado", "country": "United States", "address": "1500 Champa Street CO 80202 Denver United States"}}, {"type": "Feature", "geometry": {"type": "Point", "coordinates": [-121.9552, 37.3541]}, "properties": {"name": "1500 Space Park Dr", "company": "Digital Realty Trust", "city": "Space", "state": "", "country": "United States", "address": "1500 Space Park Dr Santa Clara United States"}}, {"type": "Feature", "geometry": {"type": "Point", "coordinates": [-93.1681384, 44.844285]}, "properties": {"name": "1500 Towerview Road", "company": "Digital Realty Trust", "city": "Road", "state": "Minnesota", "country": "United States", "address": "1500 Towerview Road MN 55121 Eagan United States"}}, {"type": "Feature", "geometry": {"type": "Point", "coordinates": [-77.4286, 39.0062]}, "properties": {"name": "1506 Moran Road", "company": "Digital Realty Trust", "city": "Sterling", "state": "District of Columbia", "country": "United States", "address": "1506 Moran Rd 20166-9306 Sterling USA"}}, {"type": "Feature", "geometry": {"type": "Point", "coordinates": [-79.3832, 43.6532]}, "properties": {"name": "151 Front St W", "company": "Zayo Group LLC", "city": "Toronto", "state": "", "country": "Canada", "address": "151 Front St W M5J 2Z1 Toronto Canada"}}, {"type": "Feature", "geometry": {"type": "Point", "coordinates": [-79.3832, 43.6532]}, "properties": {"name": "151 Front Street", "company": "Allied Properties REIT", "city": "Toronto", "state": "", "country": "Canada", "address": "151 Front Street Toronto Canada"}}, {"type": "Feature", "geometry": {"type": "Point", "coordinates": [-79.3832, 43.6532]}, "properties": {"name": "151 Front Street", "company": "SoftLayer Technologies (IBM Cloud)", "city": "Toronto", "state": "", "country": "Canada", "address": "151 Front Street Toronto Canada"}}, {"type": "Feature", "geometry": {"type": "Point", "coordinates": [-79.3832, 43.6532]}, "properties": {"name": "151 Front Street West Toronto", "company": "Northam Reality", "city": "Toronto", "state": "", "country": "Canada", "address": "151 Front Street West M5J 2N1 Toronto Canada"}}, {"type": "Feature", "geometry": {"type": "Point", "coordinates": [-121.9552, 37.3541]}, "properties": {"name": "1525 Comstock Street", "company": "Digital Realty Trust", "city": "Santa", "state": "California", "country": "United States", "address": "1525 Comstock Street 95054 Santa Clara United States"}}, {"type": "Feature", "geometry": {"type": "Point", "coordinates": [-81.6944, 41.4993]}, "properties": {"name": "1525 Rockwell Ave", "company": "Zayo Group LLC", "city": "Cleveland", "state": "Ohio", "country": "United States", "address": "1525 Rockwell Ave. 44114 Cleveland United States"}}, {"type": "Feature", "geometry": {"type": "Point", "coordinates": [2.259796, 48.9065599]}, "properties": {"name": "16 Avenue De L\u00c9urope", "company": "Zayo Group LLC", "city": "Bois-Colombes", "state": "", "country": "France", "address": "16 Avenue de l'Europe 92270 Bois-Colombes France"}}, {"type": "Feature", "geometry": {"type": "Point", "coordinates": [-74.1739458, 40.7366527]}, "properties": {"name": "165 Halsey", "company": "Zayo Group LLC", "city": "Newark", "state": "New Jersey", "country": "United States", "address": "165 Halsey St 07102 Newark United States"}}, {"type": "Feature", "geometry": {"type": "Point", "coordinates": [-74.1739458, 40.7366527]}, "properties": {"name": "165 Halsey Street", "company": "Tishman Real Estate Services", "city": "States", "state": "", "country": "United States", "address": "165 Halsey Street Newark United States"}}, {"type": "Feature", "geometry": {"type": "Point", "coordinates": [-96.797, 32.7767]}, "properties": {"name": "17201 Waterview Pkwy", "company": "Digital Realty Trust", "city": "Dallas", "state": "Texas", "country": "United States", "address": "17201 Waterview Pkwy 75252 Dallas USA"}}, {"type": "Feature", "geometry": {"type": "Point", "coordinates": [-117.8406003, 33.6904335]}, "properties": {"name": "17222 Von Karman Ave", "company": "Zayo Group LLC", "city": "Irvine", "state": "California", "country": "United States", "address": "17222 Von Karman Ave 92614-6202 Irvine USA"}}, {"type": "Feature", "geometry": {"type": "Point", "coordinates": [-121.9552, 37.3541]}, "properties": {"name": "1725 Comstock Street", "company": "Digital Realty Trust", "city": "Santa", "state": "California", "country": "United States", "address": "1725 Comstock Street 95054 Santa Clara United States"}}, {"type": "Feature", "geometry": {"type": "Point", "coordinates": [-117.8424523, 33.6878845]}, "properties": {"name": "17400 Von Karman Ave", "company": "Zayo Group LLC", "city": "Irvine", "state": "California", "country": "United States", "address": "17400 Von Karman Ave 92614-6206 Irvine USA"}}, {"type": "Feature", "geometry": {"type": "Point", "coordinates": [-77.3276905, 38.948764]}, "properties": {"name": "1780 Business Center Drive", "company": "Digital Realty Trust", "city": "Reston", "state": "District of Columbia", "country": "United States", "address": "1780 Business Center Dr 20190-5318 Reston USA"}}, {"type": "Feature", "geometry": {"type": "Point", "coordinates": [-82.9988, 39.9612]}, "properties": {"name": "180 E Broad Street (Continental Plaza Building)", "company": "Continental Realty", "city": "Columbus", "state": "Ohio", "country": "United States", "address": "180 E Broad Street 43215 Columbus United States"}}, {"type": "Feature", "geometry": {"type": "Point", "coordinates": [-84.388, 33.749]}, "properties": {"name": "180 Peachtree", "company": "Mapletree Redwood Data Centre Trust (MRDCT)", "city": "Atlanta", "state": "Georgia", "country": "United States", "address": "180 Peachtree St NW 30303 Atlanta USA"}}, {"type": "Feature", "geometry": {"type": "Point", "coordinates": [-80.8431, 35.2271]}, "properties": {"name": "1805 Center Park Drive", "company": "Mapletree Redwood Data Centre Trust (MRDCT)", "city": "Charlotte", "state": "North Carolina", "country": "United States", "address": "1805 Center Park Dr 28217-2900 Charlotte USA"}}, {"type": "Feature", "geometry": {"type": "Point", "coordinates": [-87.9221419, 41.8542957]}, "properties": {"name": "1808 Swift Dr.", "company": "Zayo Group LLC", "city": "Oak", "state": "Illinois", "country": "United States", "address": "1808 Swift Dr 60523 Oak Brook USA"}}, {"type": "Feature", "geometry": {"type": "Point", "coordinates": [153.0251, -27.4698]}, "properties": {"name": "19 McKechnie", "company": "Interactive", "city": "Brisbane", "state": "", "country": "Australia", "address": "19 McKechnie Brisbane Australia"}}, {"type": "Feature", "geometry": {"type": "Point", "coordinates": [2.3522, 48.8566]}, "properties": {"name": "19/21 Rue Poissonni\u00e8re", "company": "Zayo Group LLC", "city": "Paris", "state": "", "country": "France", "address": "19/21 Rue Poissonni\u00e8re 75002 Paris France"}}, {"type": "Feature", "geometry": {"type": "Point", "coordinates": [-121.8863, 37.3382]}, "properties": {"name": "190 Park Center Plaza San Jose", "company": "Telepacific", "city": "San", "state": "California", "country": "United States", "address": "190 Park Center Plaza 95113 San Jose United States"}}, {"type": "Feature", "geometry": {"type": "Point", "coordinates": [-111.892444, 33.2768241]}, "properties": {"name": "1900 S. Price Road", "company": "Digital Realty Trust", "city": "Chandler", "state": "Arizona", "country": "United States", "address": "S Price Rd 1900 85286 Chandler United States"}}, {"type": "Feature", "geometry": {"type": "Point", "coordinates": [-78.6245371, 35.8065914]}, "properties": {"name": "1918 Wake Forest Rd", "company": "CenturyLink", "city": "Raleigh", "state": "North Carolina", "country": "United States", "address": "1918 Wake Forest Rd 27606 Raleigh United States"}}, {"type": "Feature", "geometry": {"type": "Point", "coordinates": [-112.074, 33.4484]}, "properties": {"name": "1919 w Lone Cactus Dr", "company": "CyberTrails", "city": "Phoenix", "state": "Arizona", "country": "United States", "address": "1919 w Lone Cactus Dr 85027 Phoenix United States"}}, {"type": "Feature", "geometry": {"type": "Point", "coordinates": [-83.2381065, 42.472174]}, "properties": {"name": "19675 W Ten Mile Road", "company": "Mapletree Redwood Data Centre Trust (MRDCT)", "city": "Southfield", "state": "Michigan", "country": "United States", "address": "19675 W 10 Mile Rd 48075 Southfield USA"}}, {"type": "Feature", "geometry": {"type": "Point", "coordinates": [-73.9894744, 40.8691719]}, "properties": {"name": "2 Christie Heights", "company": "Mapletree Redwood Data Centre Trust (MRDCT)", "city": "Leonia", "state": "New Jersey", "country": "United States", "address": "2 Christie Heights St 07605 Leonia USA"}}, {"type": "Feature", "geometry": {"type": "Point", "coordinates": [-0.1593644, 51.2453634]}, "properties": {"name": "2 Foxboro Rd", "company": "Digital Realty Trust", "city": "Redhill", "state": "", "country": "United Kingdom", "address": "2 Foxboro Rd RH1 1TD Redhill UK"}}, {"type": "Feature", "geometry": {"type": "Point", "coordinates": [-74.1245144, 40.8305858]}, "properties": {"name": "2 Peekay Drive", "company": "Digital Realty Trust", "city": "Clifton", "state": "New Jersey", "country": "United States", "address": "Peekay Dr 2 07014 Clifton United States"}}, {"type": "Feature", "geometry": {"type": "Point", "coordinates": [-74.1245144, 40.8305858]}, "properties": {"name": "2 Peekay Drive", "company": "CBRE", "city": "Clifton", "state": "New Jersey", "country": "United States", "address": "2 Peekay Dr 07014 Clifton USA"}}, {"type": "Feature", "geometry": {"type": "Point", "coordinates": [-87.6298, 41.8781]}, "properties": {"name": "200 N. LaSalle", "company": "CenturyLink", "city": "Chicago", "state": "Illinois", "country": "United States", "address": "200 N LaSalle St 60601 Chicago United States"}}, {"type": "Feature", "geometry": {"type": "Point", "coordinates": [-118.3863556, 33.9176631]}, "properties": {"name": "200 North Nash Street", "company": "Digital Realty Trust", "city": "Street", "state": "California", "country": "United States", "address": "200 North Nash Street CA 90245 El Segundo United States"}}, {"type": "Feature", "geometry": {"type": "Point", "coordinates": [-98.2313816, 26.2019209]}, "properties": {"name": "200 South 10th Street", "company": "CBRE", "city": "McAllen", "state": "Texas", "country": "United States", "address": "200 South 10th Street 78501 McAllen United States"}}, {"type": "Feature", "geometry": {"type": "Point", "coordinates": [-80.1918, 25.7617]}, "properties": {"name": "200 Technology Center", "company": "Transwestern", "city": "Miami", "state": "Florida", "country": "United States", "address": "200 SE 1st Street 33131 Miami United States"}}, {"type": "Feature", "geometry": {"type": "Point", "coordinates": [-75.1652, 39.9526]}, "properties": {"name": "2000 Kubach Road", "company": "Mapletree Redwood Data Centre Trust (MRDCT)", "city": "Philadelphia", "state": "Pennsylvania", "country": "United States", "address": "2000 Kubach Rd 19116 Philadelphia USA"}}, {"type": "Feature", "geometry": {"type": "Point", "coordinates": [-122.3321, 47.6062]}, "properties": {"name": "2001 Sixth Avenue", "company": "Digital Realty Trust", "city": "Seattle", "state": "Washington", "country": "United States", "address": "2001 Sixth Avenue 98121 Seattle United States"}}, {"type": "Feature", "geometry": {"type": "Point", "coordinates": [-111.9009904, 33.3423111]}, "properties": {"name": "2010 East Centennial Circle", "company": "Digital Realty Trust", "city": "Tempe", "state": "Arizona", "country": "United States", "address": "2010 East Centennial Circle 85280 Tempe United States"}}, {"type": "Feature", "geometry": {"type": "Point", "coordinates": [-96.797, 32.7767]}, "properties": {"name": "2020 Live Oak", "company": "MCFMAX", "city": "Dallas", "state": "Texas", "country": "United States", "address": "2020 Live Oak 75201 Dallas United States"}}, {"type": "Feature", "geometry": {"type": "Point", "coordinates": [-121.9552, 37.3541]}, "properties": {"name": "2045 & 2055 LaFayette Street", "company": "Digital Realty Trust", "city": "Santa", "state": "California", "country": "United States", "address": "2045 & 2055 LaFayette Street 90210 Santa Clara United States"}}, {"type": "Feature", "geometry": {"type": "Point", "coordinates": [-121.7510763, 37.1972758]}, "properties": {"name": "2050 Martin Avenue", "company": "Bay Area Internet Services (BAIS)", "city": "States", "state": "", "country": "United States", "address": "Silicon Valley Silicon Valley United States"}}, {"type": "Feature", "geometry": {"type": "Point", "coordinates": [-86.7816, 36.1627]}, "properties": {"name": "209 10th Ave South", "company": "Zayo Group LLC", "city": "Nashville", "state": "Tennessee", "country": "United States", "address": "209 10th Ave South 37203 Nashville United States"}}, {"type": "Feature", "geometry": {"type": "Point", "coordinates": [-90.1994, 38.627]}, "properties": {"name": "210 North Tucker", "company": "Netrality", "city": "St.", "state": "Missouri", "country": "United States", "address": "210 N Tucker Blvd 63101 St. Louis USA"}}, {"type": "Feature", "geometry": {"type": "Point", "coordinates": [-77.4286, 39.0062]}, "properties": {"name": "21110 Ridgetop Circle", "company": "Digital Realty Trust", "city": "Circle", "state": "Virginia", "country": "United States", "address": "21110 Ridgetop Circle VA Sterling United States"}}, {"type": "Feature", "geometry": {"type": "Point", "coordinates": [-111.8866379, 33.2748973]}, "properties": {"name": "2121 S. Price Road", "company": "Digital Realty Trust", "city": "Road", "state": "Arizona", "country": "United States", "address": "2121 S. Price Road AZ 85286 Chandler United States"}}, {"type": "Feature", "geometry": {"type": "Point", "coordinates": [-0.1278, 51.5074]}, "properties": {"name": "215 Marsh Wall", "company": "Digital Realty Trust", "city": "London", "state": "", "country": "United Kingdom", "address": "Memaco House, Meridian Gate, 215 Marsh Wall E14 9FJ London United Kingdom"}}, {"type": "Feature", "geometry": {"type": "Point", "coordinates": [-77.4874, 39.0438]}, "properties": {"name": "21551 Beaumeade Cir", "company": "Digital Realty Trust", "city": "Ashburn", "state": "District of Columbia", "country": "United States", "address": "21551 Beaumeade Cir 20147 Ashburn United States"}}, {"type": "Feature", "geometry": {"type": "Point", "coordinates": [-77.4874, 39.0438]}, "properties": {"name": "21561-21571 Beaumeade Cir", "company": "Digital Realty Trust", "city": "Ashburn", "state": "District of Columbia", "country": "United States", "address": "21561-21571 Beaumeade Cir 20147 Ashburn United States"}}, {"type": "Feature", "geometry": {"type": "Point", "coordinates": [-87.6298, 41.8781]}, "properties": {"name": "216 West Jackson Boulevard", "company": "ANET Internet Solutions", "city": "Chicago", "state": "Illinois", "country": "United States", "address": "216 West Jackson Boulevard 60606 Chicago United States"}}, {"type": "Feature", "geometry": {"type": "Point", "coordinates": [-77.4874, 39.0438]}, "properties": {"name": "21625 Gresham Drive", "company": "Digital Realty Trust", "city": "Ashburn", "state": "District of Columbia", "country": "United States", "address": "21625 Gresham Dr 20147 Ashburn USA"}}, {"type": "Feature", "geometry": {"type": "Point", "coordinates": [-77.4874, 39.0438]}, "properties": {"name": "21635 Red Rum Dr", "company": "Zayo Group LLC", "city": "Ashburn", "state": "District of Columbia", "country": "United States", "address": "21635 Red Rum Dr 20147 Ashburn USA"}}, {"type": "Feature", "geometry": {"type": "Point", "coordinates": [-77.4874, 39.0438]}, "properties": {"name": "21745 Sir Timothy Drive", "company": "Digital Realty Trust", "city": "Ashburn", "state": "District of Columbia", "country": "United States", "address": "21745 Sir Timothy Drive 20147 Ashburn USA"}}, {"type": "Feature", "geometry": {"type": "Point", "coordinates": [-87.9595107, 41.9973883]}, "properties": {"name": "2200 Busse Road", "company": "Digital Realty Trust", "city": "Elk", "state": "Illinois", "country": "United States", "address": "2200 Busse Rd 60007-6020 Elk Grove Village USA"}}, {"type": "Feature", "geometry": {"type": "Point", "coordinates": [-121.9552, 37.3541]}, "properties": {"name": "2220 De La Cruz Boulevard", "company": "Digital Realty Trust", "city": "Santa", "state": "California", "country": "United States", "address": "2220 De La Cruz Blvd 95050 Santa Clara USA"}}, {"type": "Feature", "geometry": {"type": "Point", "coordinates": [-118.3846185, 33.915514]}, "properties": {"name": "2260 East El Segundo Blvd", "company": "Digital Realty Trust", "city": "Segundo", "state": "California", "country": "United States", "address": "2260 East El Segundo Boulevard 90245 El Segundo United States"}}, {"type": "Feature", "geometry": {"type": "Point", "coordinates": [-0.1278, 51.5074]}, "properties": {"name": "227 Marsh Wall", "company": "Digital Realty Trust", "city": "London", "state": "", "country": "United Kingdom", "address": "Sovereign House, 227 Marsh Wall E14 9SD London United Kingdom"}}, {"type": "Feature", "geometry": {"type": "Point", "coordinates": [-77.4286, 39.0062]}, "properties": {"name": "22810 International Dr", "company": "Cyxtera", "city": "Sterling", "state": "District of Columbia", "country": "United States", "address": "22810 International Dr 20166 Sterling USA"}}, {"type": "Feature", "geometry": {"type": "Point", "coordinates": [-77.4286, 39.0062]}, "properties": {"name": "22860 International Drive", "company": "Cyxtera", "city": "Drive", "state": "Virginia", "country": "United States", "address": "22860 International Drive VA 20166 Sterling United States"}}, {"type": "Feature", "geometry": {"type": "Point", "coordinates": [-87.9577476, 41.9943723]}, "properties": {"name": "2299 Busse Road", "company": "Digital Realty Trust", "city": "Elk", "state": "Illinois", "country": "United States", "address": "2299 Busse Rd 60007 Elk Grove Village USA"}}, {"type": "Feature", "geometry": {"type": "Point", "coordinates": [-77.4286, 39.0062]}, "properties": {"name": "22995 Wilder Court", "company": "Cyxtera", "city": "Court", "state": "Virginia", "country": "United States", "address": "22995 Wilder Court VA 20166 Sterling United States"}}, {"type": "Feature", "geometry": {"type": "Point", "coordinates": [-80.1918, 25.7617]}, "properties": {"name": "2300 NW 89th Pl", "company": "Digital Realty Trust", "city": "Miami", "state": "", "country": "United States", "address": "2300 NW 89th Pl Miami United States"}}, {"type": "Feature", "geometry": {"type": "Point", "coordinates": [-96.797, 32.7767]}, "properties": {"name": "2323 Bryan Street", "company": "Digital Realty Trust", "city": "Street", "state": "Texas", "country": "United States", "address": "2323 Bryan Street TX 75201 Dallas United States"}}, {"type": "Feature", "geometry": {"type": "Point", "coordinates": [-121.8863, 37.3382]}, "properties": {"name": "2334 Lundy Place", "company": "Digital Realty Trust", "city": "Lundy", "state": "", "country": "United States", "address": "2334 Lundy Place San Jose United States"}}, {"type": "Feature", "geometry": {"type": "Point", "coordinates": [153.0251, -27.4698]}, "properties": {"name": "24 Little Edward", "company": "Over the Wire Pty. Ltd.", "city": "Brisbane", "state": "", "country": "Australia", "address": "24 Upper Edward St., Spring Hill 4001 Brisbane Australia"}}, {"type": "Feature", "geometry": {"type": "Point", "coordinates": [-94.5786, 39.0997]}, "properties": {"name": "2401 Holly Kansas City", "company": "Wholesale Internet, Inc.", "city": "Kansas", "state": "Missouri", "country": "United States", "address": "2401 Holly St 64108 Kansas City United States"}}, {"type": "Feature", "geometry": {"type": "Point", "coordinates": [-121.9552, 37.3541]}, "properties": {"name": "2401 Walsh Street", "company": "Digital Realty Trust", "city": "Walsh", "state": "", "country": "United States", "address": "2401 Walsh Street Santa Clara United States"}}, {"type": "Feature", "geometry": {"type": "Point", "coordinates": [-121.9552, 37.3541]}, "properties": {"name": "2403 Walsh Street", "company": "Digital Realty Trust", "city": "Walsh", "state": "", "country": "United States", "address": "2403 Walsh Street Santa Clara United States"}}, {"type": "Feature", "geometry": {"type": "Point", "coordinates": [-96.8554567, 32.9780296]}, "properties": {"name": "2440 Marsh Lane", "company": "Digital Realty Trust", "city": "Lane", "state": "Texas", "country": "United States", "address": "2440 Marsh Lane TX 75006 Carrollton United States"}}, {"type": "Feature", "geometry": {"type": "Point", "coordinates": [138.6007, -34.9285]}, "properties": {"name": "247 Pulteney Street", "company": "Colocity Pty Ltd", "city": "Adelaide", "state": "", "country": "Australia", "address": "247 Pulteney Street 5000 Adelaide Australia"}}, {"type": "Feature", "geometry": {"type": "Point", "coordinates": [-84.388, 33.749]}, "properties": {"name": "250 Williams Atlanta Data Center", "company": "Carter Validus Mission Critical REIT", "city": "Atlanta", "state": "Georgia", "country": "United States", "address": "250 Williams St NW 30303 Atlanta USA"}}, {"type": "Feature", "geometry": {"type": "Point", "coordinates": [-84.388, 33.749]}, "properties": {"name": "250 Williams Street NW", "company": "Digital Realty Trust", "city": "Atlanta", "state": "Georgia", "country": "United States", "address": "Williams St NW 250 30303 Atlanta United States"}}, {"type": "Feature", "geometry": {"type": "Point", "coordinates": [-77.3802967, 38.955581]}, "properties": {"name": "251 Exchange Place", "company": "Lincoln Rackhouse", "city": "Herndon", "state": "District of Columbia", "country": "United States", "address": "251 Exchange Pl 20170-4822 Herndon USA"}}, {"type": "Feature", "geometry": {"type": "Point", "coordinates": [-90.483647, 41.5508188]}, "properties": {"name": "2701 Devils Glen Road", "company": "ColoHub LLC", "city": "Bettendorf", "state": "Iowa", "country": "United States", "address": "2701 Devils Glen Road 52722 Bettendorf United States"}}, {"type": "Feature", "geometry": {"type": "Point", "coordinates": [-122.3917665, 37.7825848]}, "properties": {"name": "274 Brannan Street", "company": "The Swig Company", "city": "San", "state": "California", "country": "United States", "address": "274 Brannan Street 94107 San Francisco United States"}}, {"type": "Feature", "geometry": {"type": "Point", "coordinates": [-84.1985252, 33.9547304]}, "properties": {"name": "2775 Northwoods Parkway", "company": "Mapletree Redwood Data Centre Trust (MRDCT)", "city": "Norcross", "state": "Georgia", "country": "United States", "address": "2775 Northwoods Pkwy 30071-1533 Norcross USA"}}, {"type": "Feature", "geometry": {"type": "Point", "coordinates": [-121.9552, 37.3541]}, "properties": {"name": "2805 Lafayette Street", "company": "Digital Realty Trust", "city": "Santa", "state": "California", "country": "United States", "address": "2805 Lafayette Street 95050 Santa Clara United States"}}, {"type": "Feature", "geometry": {"type": "Point", "coordinates": [-121.9552, 37.3541]}, "properties": {"name": "2820 Northwestern Parkway", "company": "Digital Realty Trust", "city": "Pkwy", "state": "California", "country": "United States", "address": "2820 Northwestern Pkwy CA 95051 Santa Clara United States"}}, {"type": "Feature", "geometry": {"type": "Point", "coordinates": [103.8198, -1.3521]}, "properties": {"name": "29A International Parkway", "company": "Digital Realty Trust", "city": "Singapore", "state": "", "country": "Singapore", "address": "29A International Parkway 609923 Singapore Singapore"}}, {"type": "Feature", "geometry": {"type": "Point", "coordinates": [-74.4570679, 40.5537911]}, "properties": {"name": "3 Corporate Place", "company": "Digital Realty Trust", "city": "Piscataway", "state": "New Jersey", "country": "United States", "address": "3 Corporate Place 08854 Piscataway United States"}}, {"type": "Feature", "geometry": {"type": "Point", "coordinates": [103.8198, -1.3521]}, "properties": {"name": "3 Loyang Way", "company": "Digital Realty Trust", "city": "Singapore", "state": "", "country": "Singapore", "address": "3 Loyang Way 508719 Singapore Singapore"}}, {"type": "Feature", "geometry": {"type": "Point", "coordinates": [-0.1278, 51.5074]}, "properties": {"name": "3 Waxlow Road", "company": "Options Technology", "city": "London", "state": "", "country": "United Kingdom", "address": "3 Waxlow Road NW10 7NU London United Kingdom"}}, {"type": "Feature", "geometry": {"type": "Point", "coordinates": [-77.0369, 38.9072]}, "properties": {"name": "30 E St. SW", "company": "Verizon", "city": "Washington", "state": "District of Columbia", "country": "United States", "address": "30 E St SW 20024-3224 Washington USA"}}, {"type": "Feature", "geometry": {"type": "Point", "coordinates": [-74.0260271, 40.7615218]}, "properties": {"name": "300 Boulevard East", "company": "Cyxtera", "city": "East", "state": "New Jersey", "country": "United States", "address": "300 Boulevard East NJ 07086 Weehawken United States"}}, {"type": "Feature", "geometry": {"type": "Point", "coordinates": [-96.6448553, 32.7812613]}, "properties": {"name": "3000SkylineDallas", "company": "CAPSTAR Commercial Real Estate Service", "city": "Skyline", "state": "", "country": "United States", "address": "3000 Skyline Drive Mesquite United States"}}, {"type": "Feature", "geometry": {"type": "Point", "coordinates": [-121.9552, 37.3541]}, "properties": {"name": "3011 Lafayette Street", "company": "Digital Realty Trust", "city": "Lafayette", "state": "", "country": "United States", "address": "3011 Lafayette Street Santa Clara United States"}}, {"type": "Feature", "geometry": {"type": "Point", "coordinates": [-118.3427633, 34.1993286]}, "properties": {"name": "3015 Winona Avenue", "company": "Digital Realty Trust", "city": "Avenue", "state": "California", "country": "United States", "address": "3015 Winona Avenue CA 91504 Burbank United States"}}, {"type": "Feature", "geometry": {"type": "Point", "coordinates": [-121.2725216, 38.5914368]}, "properties": {"name": "3065 Gold Camp Drive", "company": "Carter Validus Mission Critical REIT", "city": "Rancho", "state": "California", "country": "United States", "address": "3065 Gold Camp Drive 95670 Rancho Cordova United States"}}, {"type": "Feature", "geometry": {"type": "Point", "coordinates": [-121.9552, 37.3541]}, "properties": {"name": "3080 Raymond Street", "company": "Digital Realty Trust", "city": "Street", "state": "California", "country": "United States", "address": "3080 Raymond Street CA 95054 Santa Clara United States"}}, {"type": "Feature", "geometry": {"type": "Point", "coordinates": [-0.1278, 51.5074]}, "properties": {"name": "31 Great Sutton Street", "company": "Volta", "city": "London", "state": "", "country": "United Kingdom", "address": "36-43 Great Sutton Street EC1V 0AB London United Kingdom"}}, {"type": "Feature", "geometry": {"type": "Point", "coordinates": [-121.9552, 37.3541]}, "properties": {"name": "3105 Alfred Street", "company": "Digital Realty Trust", "city": "Santa", "state": "California", "country": "United States", "address": "3105 Alfred Street 95054 Santa Clara United States"}}, {"type": "Feature", "geometry": {"type": "Point", "coordinates": [-112.074, 33.4484]}, "properties": {"name": "3110 N. Central Ave.", "company": "Zayo Group LLC", "city": "Phoenix", "state": "Arizona", "country": "United States", "address": "3110 N Central Ave 85012 Phoenix USA"}}, {"type": "Feature", "geometry": {"type": "Point", "coordinates": [-112.074, 33.4484]}, "properties": {"name": "3110 North Central Avenue", "company": "Unknown", "city": "Phoenix", "state": "Arizona", "country": "United States", "address": "3110 North Central Avenue 85012 Phoenix United States"}}, {"type": "Feature", "geometry": {"type": "Point", "coordinates": [-74.006, 40.7128]}, "properties": {"name": "32 Avenue of the Americas", "company": "Digital Realty Trust", "city": "New", "state": "New York", "country": "United States", "address": "32 6th Ave 10013-2473 New York USA"}}, {"type": "Feature", "geometry": {"type": "Point", "coordinates": [-121.9552, 37.3541]}, "properties": {"name": "3205 Alfred Street", "company": "Digital Realty Trust", "city": "Santa", "state": "California", "country": "United States", "address": "3205 Alfred St 95054 Santa Clara USA"}}, {"type": "Feature", "geometry": {"type": "Point", "coordinates": [-87.9069379, 43.0389885]}, "properties": {"name": "324 E Wisconsin", "company": "Towne Investments", "city": "Milwaukee", "state": "Wisconsin", "country": "United States", "address": "324 E. Wisconsin Ave 53202 Milwaukee United States"}}, {"type": "Feature", "geometry": {"type": "Point", "coordinates": [-74.006, 40.7128]}, "properties": {"name": "325 Hudson Street", "company": "325 Hudson Street", "city": "States", "state": "", "country": "United States", "address": "325 Hudson Street New York City United States"}}, {"type": "Feature", "geometry": {"type": "Point", "coordinates": [-74.006, 40.7128]}, "properties": {"name": "325 Hudson Street", "company": "Netrality", "city": "New", "state": "New York", "country": "United States", "address": "325 Hudson St 10013-1005 New York USA"}}, {"type": "Feature", "geometry": {"type": "Point", "coordinates": [114.1694, 22.3193]}, "properties": {"name": "33 Chun Choi Street", "company": "Digital Realty Trust", "city": "Kong", "state": "", "country": "Hong Kong", "address": "33 Chun Choi Street, Tseung Kwan O Industrial Estate Hong Kong Hong Kong"}}, {"type": "Feature", "geometry": {"type": "Point", "coordinates": [-96.7299, 32.9483]}, "properties": {"name": "3300 Essex Drive", "company": "Mapletree Redwood Data Centre Trust (MRDCT)", "city": "Richardson", "state": "Texas", "country": "United States", "address": "3300 Essex Dr 75082-9708 Richardson USA"}}, {"type": "Feature", "geometry": {"type": "Point", "coordinates": [-122.2873698, 47.4956246]}, "properties": {"name": "3311 S. 120th", "company": "Zayo Group LLC", "city": "Tukwila", "state": "Washington", "country": "United States", "address": "3311 S 120th Pl 98168 Tukwila USA"}}, {"type": "Feature", "geometry": {"type": "Point", "coordinates": [-71.5803148, 42.3135391]}, "properties": {"name": "34 St. Martin", "company": "Lincoln Rackhouse", "city": "Marlborough", "state": "Massachusetts", "country": "United States", "address": "34 St Martin Dr 01752-3021 Marlborough USA"}}, {"type": "Feature", "geometry": {"type": "Point", "coordinates": [-71.5803148, 42.3135391]}, "properties": {"name": "34 St. Martin Drive", "company": "RREEF", "city": "Marlborough", "state": "Massachusetts", "country": "United States", "address": "34 St. Martin Drive 01752 Marlborough United States"}}, {"type": "Feature", "geometry": {"type": "Point", "coordinates": [153.0251, -27.4698]}, "properties": {"name": "344 Queen St", "company": "AAPT", "city": "Brisbane", "state": "", "country": "Australia", "address": "344 Queen St Brisbane Australia"}}, {"type": "Feature", "geometry": {"type": "Point", "coordinates": [-79.3832, 43.6532]}, "properties": {"name": "35 John Street/250 Front Street West", "company": "Allied Properties REIT", "city": "West", "state": "Ontario", "country": "Canada", "address": "35 John Street/250 Front Street West ON Toronto Canada"}}, {"type": "Feature", "geometry": {"type": "Point", "coordinates": [-87.6298, 41.8781]}, "properties": {"name": "350 E Cermak Rd, Chicago", "company": "Steadfast Networks", "city": "Chicago", "state": "Illinois", "country": "United States", "address": "350 East Cermak Road 60623 Chicago United States"}}, {"type": "Feature", "geometry": {"type": "Point", "coordinates": [-87.6298, 41.8781]}, "properties": {"name": "350 E Cermak Rd. Chicago", "company": "Digital Realty Trust", "city": "Rd.", "state": "Illinois", "country": "United States", "address": "350 E Cermak Rd. IL 60623 Chicago United States"}}, {"type": "Feature", "geometry": {"type": "Point", "coordinates": [-87.6298, 41.8781]}, "properties": {"name": "350 East Cermak, 4th floor", "company": "Cyxtera", "city": "floor", "state": "Illinois", "country": "United States", "address": "350 East Cermak, 4th floor IL 60616 Chicago United States"}}, {"type": "Feature", "geometry": {"type": "Point", "coordinates": [-87.6298, 41.8781]}, "properties": {"name": "350 East Cermak, 7th floor", "company": "Cyxtera", "city": "floor", "state": "Illinois", "country": "United States", "address": "350 East Cermak, 7th floor IL 60616 Chicago United States"}}, {"type": "Feature", "geometry": {"type": "Point", "coordinates": [-80.0852677, 26.3813992]}, "properties": {"name": "3500 NW", "company": "Real Effects", "city": "Boca", "state": "Florida", "country": "United States", "address": "3500 NW 2nd Ave 33431 Boca Raton United States"}}, {"type": "Feature", "geometry": {"type": "Point", "coordinates": [-80.1918, 25.7617]}, "properties": {"name": "36 NE 2nd St", "company": "Digital Realty Trust", "city": "Miami", "state": "Nebraska", "country": "United States", "address": "36 NE 2nd St FL 33132 Miami United States"}}, {"type": "Feature", "geometry": {"type": "Point", "coordinates": [-80.1918, 25.7617]}, "properties": {"name": "36 NE 2nd St.", "company": "Zayo Group LLC", "city": "Miami", "state": "Nebraska", "country": "United States", "address": "36 NE 2nd St 33132 Miami USA"}}, {"type": "Feature", "geometry": {"type": "Point", "coordinates": [-122.4194, 37.7749]}, "properties": {"name": "360 Spear Street", "company": "Digital Realty Trust", "city": "San", "state": "California", "country": "United States", "address": "360 Spear St 94105-1638 San Francisco USA"}}, {"type": "Feature", "geometry": {"type": "Point", "coordinates": [-73.5673, 45.5017]}, "properties": {"name": "360/GT Montreal", "company": "360 Networks", "city": "Montreal", "state": "", "country": "Canada", "address": "875 St Antoine St Montreal Canada"}}, {"type": "Feature", "geometry": {"type": "Point", "coordinates": [-79.3832, 43.6532]}, "properties": {"name": "360/GT Toronto", "company": "360 Networks", "city": "Toronto", "state": "", "country": "Canada", "address": "151 Front Street W M5J 2N1 Toronto Canada"}}, {"type": "Feature", "geometry": {"type": "Point", "coordinates": [-88.0072007, 41.8458113]}, "properties": {"name": "360TCS", "company": "360TCS", "city": "Lombard", "state": "Illinois", "country": "United States", "address": "360 E. 22nd St. 60148 Lombard United States"}}, {"type": "Feature", "geometry": {"type": "Point", "coordinates": [-122.3904691, 37.788731]}, "properties": {"name": "365 Main Street", "company": "Fastmetrics", "city": "San", "state": "California", "country": "United States", "address": "365 Main Street 94105 San Francisco United States"}}, {"type": "Feature", "geometry": {"type": "Point", "coordinates": [-122.3904691, 37.788731]}, "properties": {"name": "365 Main Street", "company": "Digital Realty Trust", "city": "San", "state": "California", "country": "United States", "address": "365 Main Street 94105 San Francisco United States"}}, {"type": "Feature", "geometry": {"type": "Point", "coordinates": [-74.4518191, 40.5395481]}, "properties": {"name": "365 S Randolphville", "company": "Digital Realty Trust", "city": "Piscataway", "state": "New Jersey", "country": "United States", "address": "365 S Randolphville 08854 Piscataway United States"}}, {"type": "Feature", "geometry": {"type": "Point", "coordinates": [-74.4592262, 40.5530487]}, "properties": {"name": "365 S Randolphville Rd", "company": "Cyxtera", "city": "Piscataway", "state": "New Jersey", "country": "United States", "address": "365 S Randolphville Rd 08854 Piscataway Township USA"}}, {"type": "Feature", "geometry": {"type": "Point", "coordinates": [-121.8863, 37.3382]}, "properties": {"name": "3705 Raymond Street", "company": "Syptec", "city": "San", "state": "California", "country": "United States", "address": "3705 Raymond Street 95054 San Jose United States"}}, {"type": "Feature", "geometry": {"type": "Point", "coordinates": [-79.3236161, 43.8382591]}, "properties": {"name": "371 Gough Road", "company": "Digital Realty Trust", "city": "Markham", "state": "", "country": "Canada", "address": "371 Gough Road Markham Canada"}}, {"type": "Feature", "geometry": {"type": "Point", "coordinates": [-84.5812829, 33.7440486]}, "properties": {"name": "375 Riverside Parkway", "company": "Cyxtera", "city": "Parkway", "state": "Georgia", "country": "United States", "address": "375 Riverside Parkway GA 30122 Lithia Springs United States"}}, {"type": "Feature", "geometry": {"type": "Point", "coordinates": [-84.5812829, 33.7440486]}, "properties": {"name": "375 Riverside Parkway", "company": "Digital Realty Trust", "city": "Lithia", "state": "Georgia", "country": "United States", "address": "Riverside Parkway 375 30122 Lithia Springs United States"}}, {"type": "Feature", "geometry": {"type": "Point", "coordinates": [144.9631, -37.8136]}, "properties": {"name": "376 Flinders", "company": "AAPT", "city": "Melbourne", "state": "", "country": "Australia", "address": "376 Flinders Melbourne Australia"}}, {"type": "Feature", "geometry": {"type": "Point", "coordinates": [-79.7146014, 43.5270479]}, "properties": {"name": "3z Canada YYZ2", "company": "3z Canada", "city": "Sladeview", "state": "", "country": "Canada", "address": "3995 Sladeview Cres L5L 5X9 Mississauga Canada"}}, {"type": "Feature", "geometry": {"type": "Point", "coordinates": [-84.388, 33.749]}, "properties": {"name": "40 Perimeter Center East", "company": "Lincoln Rackhouse", "city": "Atlanta", "state": "Georgia", "country": "United States", "address": "40 Perimeter Center E 30346 Atlanta USA"}}, {"type": "Feature", "geometry": {"type": "Point", "coordinates": [-96.797, 32.7767]}, "properties": {"name": "400 S Akard Street", "company": "Digital Realty Trust", "city": "St.", "state": "Texas", "country": "United States", "address": "400 S Akard St. TX 75202 Dallas United States"}}, {"type": "Feature", "geometry": {"type": "Point", "coordinates": [-96.797, 32.7767]}, "properties": {"name": "400 S. Akard", "company": "Freeman Group", "city": "States", "state": "", "country": "United States", "address": "400 S. Akard Dallas United States"}}, {"type": "Feature", "geometry": {"type": "Point", "coordinates": [-106.6504, 35.0844]}, "properties": {"name": "400 Tijeras Ave NW", "company": "Cyxtera", "city": "Albuquerque", "state": "New Mexico", "country": "United States", "address": "400 Tijeras Ave NW 87102 Albuquerque USA"}}, {"type": "Feature", "geometry": {"type": "Point", "coordinates": [-110.9073736, 32.2362541]}, "properties": {"name": "4003 East Speedway Boulevard", "company": "Unknown", "city": "Tucson", "state": "Arizona", "country": "United States", "address": "4003 East Speedway Boulevard 85712 Tucson United States"}}, {"type": "Feature", "geometry": {"type": "Point", "coordinates": [-75.1652, 39.9526]}, "properties": {"name": "401 North Broad", "company": "Netrality", "city": "Philadelphia", "state": "Pennsylvania", "country": "United States", "address": "401 N Broad St 19108 Philadelphia USA"}}, {"type": "Feature", "geometry": {"type": "Point", "coordinates": [-86.7875755, 36.0353291]}, "properties": {"name": "402 Franklin Road", "company": "Mapletree Redwood Data Centre Trust (MRDCT)", "city": "Brentwood", "state": "Tennessee", "country": "United States", "address": "402 Franklin Rd 37027 Brentwood USA"}}, {"type": "Feature", "geometry": {"type": "Point", "coordinates": [-96.843649, 33.0213678]}, "properties": {"name": "4025 Midway Rd", "company": "Digital Realty Trust", "city": "Carrollton", "state": "Texas", "country": "United States", "address": "4025 Midway Rd TX 75007 Carrollton United States"}}, {"type": "Feature", "geometry": {"type": "Point", "coordinates": [-118.3454591, 33.8582237]}, "properties": {"name": "4100 W 190th St", "company": "Unclaimed", "city": "Torrance", "state": "California", "country": "United States", "address": "4100 W 190th St 90504 Torrance USA"}}, {"type": "Feature", "geometry": {"type": "Point", "coordinates": [-118.2437, 34.0522]}, "properties": {"name": "420 South Grand Ave.", "company": "Brookfield Infrastructure Partners LP", "city": "Los", "state": "California", "country": "United States", "address": "420 S Grand Ave 90071-1902 Los Angeles USA"}}, {"type": "Feature", "geometry": {"type": "Point", "coordinates": [-81.6557, 30.3322]}, "properties": {"name": "421 West Church Street", "company": "421 West Church Street", "city": "Jacksonville", "state": "Pennsylvania", "country": "United States", "address": "32202 Jacksonville United States 19043556474"}}, {"type": "Feature", "geometry": {"type": "Point", "coordinates": [-96.797, 32.7767]}, "properties": {"name": "4211 Bryan St.", "company": "Brookfield Infrastructure Partners LP", "city": "Dallas", "state": "Texas", "country": "United States", "address": "4211 Bryan St 75204 Dallas USA"}}, {"type": "Feature", "geometry": {"type": "Point", "coordinates": [-96.797, 32.7767]}, "properties": {"name": "4316 Bryan", "company": "XC Networks", "city": "Dallas", "state": "Texas", "country": "United States", "address": "4316 Bryan St 75204 Dallas USA"}}, {"type": "Feature", "geometry": {"type": "Point", "coordinates": [144.9631, -37.8136]}, "properties": {"name": "437 Williamstown Road", "company": "Interactive", "city": "Melbourne", "state": "", "country": "Australia", "address": "437 Williamstown Road Port Melbourne Australia"}}, {"type": "Feature", "geometry": {"type": "Point", "coordinates": [-77.4874, 39.0438]}, "properties": {"name": "43790 Devin Shafron Dr", "company": "Digital Realty Trust", "city": "Ashburn", "state": "District of Columbia", "country": "United States", "address": "43790 Devin Shafron Dr 20147 Ashburn United States"}}, {"type": "Feature", "geometry": {"type": "Point", "coordinates": [-77.4874, 39.0438]}, "properties": {"name": "43791 Devin Shafron Dr", "company": "Digital Realty Trust", "city": "Ashburn", "state": "District of Columbia", "country": "United States", "address": "43791 Devin Shafron Dr 20147 Ashburn United States"}}, {"type": "Feature", "geometry": {"type": "Point", "coordinates": [-77.4874, 39.0438]}, "properties": {"name": "43830 Devin Shafron Dr", "company": "Digital Realty Trust", "city": "Ashburn", "state": "District of Columbia", "country": "United States", "address": "43830 Devin Shafron Dr 20147 Ashburn United States"}}, {"type": "Feature", "geometry": {"type": "Point", "coordinates": [-77.4874, 39.0438]}, "properties": {"name": "43881 Devin Shafron Dr", "company": "Digital Realty Trust", "city": "Ashburn", "state": "District of Columbia", "country": "United States", "address": "43881 Devin Shafron Dr 20147 Ashburn United States"}}, {"type": "Feature", "geometry": {"type": "Point", "coordinates": [-77.4874, 39.0438]}, "properties": {"name": "43915 Devin Shafron Dr", "company": "Digital Realty Trust", "city": "Ashburn", "state": "District of Columbia", "country": "United States", "address": "43915 Devin Shafron Dr 20147 Ashburn United States"}}, {"type": "Feature", "geometry": {"type": "Point", "coordinates": [-77.4874, 39.0438]}, "properties": {"name": "43940 Digital Loudoun Plaza", "company": "Digital Realty Trust", "city": "Ashburn", "state": "District of Columbia", "country": "United States", "address": "43940 Digital Loudoun Plaza 20147 Ashburn United States"}}, {"type": "Feature", "geometry": {"type": "Point", "coordinates": [-77.4874, 39.0438]}, "properties": {"name": "44060 Digital Loudoun Plaza", "company": "Digital Realty Trust", "city": "Ashburn", "state": "District of Columbia", "country": "United States", "address": "44060 Digital Loudoun Plz 20147 Ashburn United States"}}, {"type": "Feature", "geometry": {"type": "Point", "coordinates": [-77.4874, 39.0438]}, "properties": {"name": "44100 Digital Loudoun Plaza", "company": "Digital Realty Trust", "city": "Ashburn", "state": "District of Columbia", "country": "United States", "address": "44100 Digital Loudoun Plz 20147 Ashburn United States"}}, {"type": "Feature", "geometry": {"type": "Point", "coordinates": [-77.4874, 39.0438]}, "properties": {"name": "44461 Chilum Place", "company": "Digital Realty Trust", "city": "Ashburn", "state": "District of Columbia", "country": "United States", "address": "44461 Chilum Pl 20147 Ashburn USA"}}, {"type": "Feature", "geometry": {"type": "Point", "coordinates": [-77.4874, 39.0438]}, "properties": {"name": "44470 Chillum Place", "company": "Digital Realty Trust", "city": "Ashburn", "state": "District of Columbia", "country": "United States", "address": "44470 Chillum Place 20147 Ashburn United States"}}, {"type": "Feature", "geometry": {"type": "Point", "coordinates": [-77.4874, 39.0438]}, "properties": {"name": "44480 Hastings Drive", "company": "Digital Realty Trust", "city": "Ashburn", "state": "District of Columbia", "country": "United States", "address": "44480 Hastings Dr 20147 Ashburn USA"}}, {"type": "Feature", "geometry": {"type": "Point", "coordinates": [-77.4874, 39.0438]}, "properties": {"name": "44480 Hastings Road", "company": "Digital Realty Trust", "city": "Ashburn", "state": "District of Columbia", "country": "United States", "address": "44480 Hastings Dr 20147 Ashburn USA"}}, {"type": "Feature", "geometry": {"type": "Point", "coordinates": [-77.4874, 39.0438]}, "properties": {"name": "44490 Chilum Place", "company": "Digital Realty Trust", "city": "Ashburn", "state": "District of Columbia", "country": "United States", "address": "44490 Chilum Pl 20147 Ashburn USA"}}, {"type": "Feature", "geometry": {"type": "Point", "coordinates": [-93.4639539, 44.7807426]}, "properties": {"name": "4450 Dean Lakes Blvd", "company": "Cyxtera", "city": "Shakopee", "state": "Minnesota", "country": "United States", "address": "4450 Dean Lakes Blvd 55379 Shakopee USA"}}, {"type": "Feature", "geometry": {"type": "Point", "coordinates": [-77.4874, 39.0438]}, "properties": {"name": "44520 Hastings Drive", "company": "Digital Realty Trust", "city": "Ashburn", "state": "District of Columbia", "country": "United States", "address": "44520 Hastings Dr 20147-6037 Ashburn USA"}}, {"type": "Feature", "geometry": {"type": "Point", "coordinates": [138.6007, -34.9285]}, "properties": {"name": "45 Pirie Street", "company": "AAPT", "city": "Adelaide", "state": "", "country": "Australia", "address": "45 Pirie Street, Level 1 5000 Adelaide Australia"}}, {"type": "Feature", "geometry": {"type": "Point", "coordinates": [-77.4286, 39.0062]}, "properties": {"name": "45845 Nokes Blvd", "company": "Cyxtera", "city": "Sterling", "state": "District of Columbia", "country": "United States", "address": "45845 Nokes Blvd 20166-6574 Sterling USA"}}, {"type": "Feature", "geometry": {"type": "Point", "coordinates": [-77.4286, 39.0062]}, "properties": {"name": "45901 Nokes Blvd", "company": "Digital Realty Trust", "city": "Sterling", "state": "District of Columbia", "country": "United States", "address": "45901 Nokes Blvd 20166-6516 Sterling USA"}}, {"type": "Feature", "geometry": {"type": "Point", "coordinates": [-118.4410135, 33.9816156]}, "properties": {"name": "4640 Admiralty Way", "company": "Unclaimed", "city": "Marina", "state": "California", "country": "United States", "address": "4640 Admiralty Way 90292 Marina Del Rey USA"}}, {"type": "Feature", "geometry": {"type": "Point", "coordinates": [-121.9552, 37.3541]}, "properties": {"name": "4650 Old Ironsides Drive", "company": "Cyxtera", "city": "Drive", "state": "California", "country": "United States", "address": "4650 Old Ironsides Drive CA 95054 Santa Clara United States"}}, {"type": "Feature", "geometry": {"type": "Point", "coordinates": [-85.641845, 42.2553182]}, "properties": {"name": "4664 Campus Drive", "company": "Weidenhammer", "city": "Drive", "state": "Michigan", "country": "United States", "address": "4664 Campus Drive MI Kalamazoo United States"}}, {"type": "Feature", "geometry": {"type": "Point", "coordinates": [-0.1278, 51.5074]}, "properties": {"name": "47 Milharbour", "company": "Digital Realty Trust", "city": "London", "state": "", "country": "United Kingdom", "address": "Bonnington House, Millharbour 47 E14 9TR London United Kingdom"}}, {"type": "Feature", "geometry": {"type": "Point", "coordinates": [-84.388, 33.749]}, "properties": {"name": "470 Exchange", "company": "470 exchange", "city": "Atlanta", "state": "Georgia", "country": "United States", "address": "470 East Paces Ferry Road 30327 Atlanta United States"}}, {"type": "Feature", "geometry": {"type": "Point", "coordinates": [-121.9552, 37.3541]}, "properties": {"name": "4700 Old Ironsides Drive", "company": "Cyxtera", "city": "Drive", "state": "California", "country": "United States", "address": "4700 Old Ironsides Drive CA 95054 Santa Clara United States"}}, {"type": "Feature", "geometry": {"type": "Point", "coordinates": [-96.797, 32.7767]}, "properties": {"name": "4849 Alpha Road", "company": "Digital Realty Trust", "city": "Road", "state": "Texas", "country": "United States", "address": "4849 Alpha Road TX 75214 Dallas United States"}}, {"type": "Feature", "geometry": {"type": "Point", "coordinates": [-119.2947378, 47.1866366]}, "properties": {"name": "4949 Randolph Rd NE", "company": "Cyxtera", "city": "Lake", "state": "Nebraska", "country": "United States", "address": "4949 Randolph Rd NE 98837 Moses Lake USA"}}, {"type": "Feature", "geometry": {"type": "Point", "coordinates": [103.8198, -1.3521]}, "properties": {"name": "50 Yishun Industrial Park A", "company": "Nucleus Connet", "city": "Singapore", "state": "", "country": "Singapore", "address": "50 Yishun Industrial Park A, 3rd floor, Suite 31 768725 Singapore Singapore"}}, {"type": "Feature", "geometry": {"type": "Point", "coordinates": [-97.1081, 32.7357]}, "properties": {"name": "5000 Bowen", "company": "Mapletree Redwood Data Centre Trust (MRDCT)", "city": "Arlington", "state": "Texas", "country": "United States", "address": "5000 S Bowen Rd 76017-2616 Arlington USA"}}, {"type": "Feature", "geometry": {"type": "Point", "coordinates": [-87.9128954, 41.9189911]}, "properties": {"name": "505 N Railroad Ave", "company": "Digital Realty Trust", "city": "Northlake", "state": "Illinois", "country": "United States", "address": "505 N Railroad Ave 60164 Northlake USA"}}, {"type": "Feature", "geometry": {"type": "Point", "coordinates": [-84.388, 33.749]}, "properties": {"name": "51 Peachtree Center Ave. NE", "company": "Brookfield Infrastructure Partners LP", "city": "Ave", "state": "Nebraska", "country": "United States", "address": "51 Peachtree Center Ave NE 30303-2513 Atlanta USA"}}, {"type": "Feature", "geometry": {"type": "Point", "coordinates": [-121.9552, 37.3541]}, "properties": {"name": "5101 Lafayette St.", "company": "Zayo Group LLC", "city": "Santa", "state": "California", "country": "United States", "address": "5101 Lafayette St 95054-1010 Santa Clara USA"}}, {"type": "Feature", "geometry": {"type": "Point", "coordinates": [-93.265, 44.9778]}, "properties": {"name": "511 Building - Minnesota Technology Center", "company": "511 Building", "city": "Minneapolis", "state": "Minnesota", "country": "United States", "address": "511 11th Ave S 55415 Minneapolis United States"}}, {"type": "Feature", "geometry": {"type": "Point", "coordinates": [-78.8291431, 35.8505281]}, "properties": {"name": "5150 McCrimmon Parkway", "company": "Mapletree Redwood Data Centre Trust (MRDCT)", "city": "Morrisville", "state": "North Carolina", "country": "United States", "address": "5150 McCrimmon Pkwy 27560 Morrisville USA"}}, {"type": "Feature", "geometry": {"type": "Point", "coordinates": [-98.4936, 29.4241]}, "properties": {"name": "5200 Rogers Road", "company": "Microsoft", "city": "San", "state": "Texas", "country": "United States", "address": "5200 Rogers Rd 78251 San Antonio USA"}}, {"type": "Feature", "geometry": {"type": "Point", "coordinates": [144.9631, -37.8136]}, "properties": {"name": "530 Collins", "company": "Melbourne Data Centre", "city": "Melbourne", "state": "", "country": "Australia", "address": "530 Collins St VIC 3000 Melbourne Australia"}}, {"type": "Feature", "geometry": {"type": "Point", "coordinates": [-77.0369, 38.9072]}, "properties": {"name": "545 Washington Boulevard", "company": "Knight Capital Group", "city": "Boulevard", "state": "New Jersey", "country": "United States", "address": "545 Washington Boulevard NJ Jersey City United States"}}, {"type": "Feature", "geometry": {"type": "Point", "coordinates": [151.2093, -33.8688]}, "properties": {"name": "55 Clarence", "company": "AAPT", "city": "Sydney", "state": "", "country": "Australia", "address": "55 Clarence Sydney Australia"}}, {"type": "Feature", "geometry": {"type": "Point", "coordinates": [-84.388, 33.749]}, "properties": {"name": "55 Marietta", "company": "Bank Building Limited Partnership", "city": "Atlanta", "state": "Georgia", "country": "United States", "address": "55 Marietta 30303 Atlanta United States"}}, {"type": "Feature", "geometry": {"type": "Point", "coordinates": [-71.2367515, 42.5124361]}, "properties": {"name": "55 Middlesex Turnpike", "company": "Digital Realty Trust", "city": "Turnpike", "state": "Massachusetts", "country": "United States", "address": "55 Middlesex Turnpike MA 01730 Bedford United States"}}, {"type": "Feature", "geometry": {"type": "Point", "coordinates": [-0.1278, 51.5074]}, "properties": {"name": "55-71 City Rd", "company": "Digital Realty Trust", "city": "London", "state": "", "country": "United Kingdom", "address": "City Road 55 EC1Y 1HQ London United Kingdom"}}, {"type": "Feature", "geometry": {"type": "Point", "coordinates": [-123.1207, 49.2827]}, "properties": {"name": "555 W Hastings St", "company": "Cyxtera", "city": "Vancouver", "state": "", "country": "Canada", "address": "555 W Hastings St V6E Vancouver Canada"}}, {"type": "Feature", "geometry": {"type": "Point", "coordinates": [-63.5792809, 44.644823]}, "properties": {"name": "5562 Sackville St", "company": "Internetworking Atlantic Inc. (IAI)", "city": "Sackville", "state": "", "country": "Canada", "address": "5562 Sackville St. B3J 1L1 Halifax Canada"}}, {"type": "Feature", "geometry": {"type": "Point", "coordinates": [-84.388, 33.749]}, "properties": {"name": "56 Marietta Street", "company": "Digital Realty Trust", "city": "Atlanta", "state": "Georgia", "country": "United States", "address": "56 Marietta St NW 30303 Atlanta USA"}}, {"type": "Feature", "geometry": {"type": "Point", "coordinates": [-6.2603, 53.3498]}, "properties": {"name": "565 Metro Place South", "company": "Metro Datacenter", "city": "States", "state": "", "country": "United States", "address": "565 Metro Place South Dublin United States"}}, {"type": "Feature", "geometry": {"type": "Point", "coordinates": [-90.381426, 38.772035]}, "properties": {"name": "587 McDonnell Blvd.", "company": "Cyxtera", "city": "Blvd.", "state": "Missouri", "country": "United States", "address": "587 McDonnell Blvd. MO 63042 Hazelwood United States"}}, {"type": "Feature", "geometry": {"type": "Point", "coordinates": [2.3410779, 48.9280589]}, "properties": {"name": "6 Boulevard de la Liberation", "company": "Ad Valem Technologies", "city": "Saint-Denis", "state": "", "country": "France", "address": "6 Boulevard de la Liberation Saint-Denis France"}}, {"type": "Feature", "geometry": {"type": "Point", "coordinates": [103.8198, -1.3521]}, "properties": {"name": "6 Changi South Lane", "company": "Mapletree Logistics Trust (MLT)", "city": "Singapore", "state": "", "country": "Singapore", "address": "6 Changi S Ln 486400 Singapore Singapore"}}, {"type": "Feature", "geometry": {"type": "Point", "coordinates": [103.8198, -1.3521]}, "properties": {"name": "6 Changi South Lane", "company": "Singapore Technologies Engineering (ST Engineering)", "city": "Singapore", "state": "", "country": "Singapore", "address": "6 Changi South Lane Singapore Singapore"}}, {"type": "Feature", "geometry": {"type": "Point", "coordinates": [103.8198, -1.3521]}, "properties": {"name": "6 Changi South Lane", "company": "Mapletree Logistics Trust (MLT)", "city": "Singapore", "state": "", "country": "Singapore", "address": "6 Changi S Ln 486400 Singapore Singapore"}}, {"type": "Feature", "geometry": {"type": "Point", "coordinates": [-0.1278, 51.5074]}, "properties": {"name": "6 Greenwich View", "company": "Cyxtera", "city": "London", "state": "", "country": "United Kingdom", "address": "6 Greenwich View E14 9NN London UK"}}, {"type": "Feature", "geometry": {"type": "Point", "coordinates": [-74.006, 40.7128]}, "properties": {"name": "60 Hudson Street", "company": "Digital Realty Trust", "city": "New", "state": "New York", "country": "United States", "address": "60 Hudson St, Floor 5 10013 New York USA"}}, {"type": "Feature", "geometry": {"type": "Point", "coordinates": [-73.8617906, 41.1270828]}, "properties": {"name": "600 Albany Post Road", "company": "Lincoln Rackhouse", "city": "Briarcliff", "state": "New York", "country": "United States", "address": "600 Albany Post Rd 10510-2427 Briarcliff Manor USA"}}, {"type": "Feature", "geometry": {"type": "Point", "coordinates": [-87.6298, 41.8781]}, "properties": {"name": "600 S Federal St.", "company": "Zayo Group LLC", "city": "Chicago", "state": "Illinois", "country": "United States", "address": "600 S Federal St 60605 Chicago USA"}}, {"type": "Feature", "geometry": {"type": "Point", "coordinates": [-71.0589, 42.3601]}, "properties": {"name": "600 Winter St", "company": "Digital Realty Trust", "city": "Boston", "state": "Massachusetts", "country": "United States", "address": "600 Winter St MA 02451 Boston United States"}}, {"type": "Feature", "geometry": {"type": "Point", "coordinates": [-87.6298, 41.8781]}, "properties": {"name": "600-780 South Federal", "company": "Digital Realty Trust", "city": "States", "state": "", "country": "United States", "address": "600-780 South Federal Chicago United States"}}, {"type": "Feature", "geometry": {"type": "Point", "coordinates": [-122.4194, 37.7749]}, "properties": {"name": "611 Folsom St.", "company": "Brookfield Infrastructure Partners LP", "city": "San", "state": "California", "country": "United States", "address": "611 Folsom St 94107-1304 San Francisco USA"}}, {"type": "Feature", "geometry": {"type": "Point", "coordinates": [-112.074, 33.4484]}, "properties": {"name": "615 N 48th St", "company": "Cyxtera", "city": "Phoenix", "state": "Arizona", "country": "United States", "address": "615 N 48th St 85008-6608 Phoenix USA"}}, {"type": "Feature", "geometry": {"type": "Point", "coordinates": [-122.4033554, 37.7708073]}, "properties": {"name": "650 Townsend St", "company": "Virtustream", "city": "Francisco", "state": "California", "country": "United States", "address": "650 Townsend st CA 94013 San Francisco United States"}}, {"type": "Feature", "geometry": {"type": "Point", "coordinates": [-96.797, 32.7767]}, "properties": {"name": "6606 LBJ Fwy", "company": "Zayo Group LLC", "city": "Dallas", "state": "Texas", "country": "United States", "address": "6606 Lyndon B Johnson Fwy 75240 Dallas USA"}}, {"type": "Feature", "geometry": {"type": "Point", "coordinates": [-96.6989, 33.0198]}, "properties": {"name": "6715 Pinecrest Drive", "company": "Lincoln Rackhouse", "city": "Plano", "state": "Texas", "country": "United States", "address": "6715 Pinecrest Dr 75024 Plano USA"}}, {"type": "Feature", "geometry": {"type": "Point", "coordinates": [-104.8479857, 39.5917924]}, "properties": {"name": "6900 S Peoria St", "company": "Zayo Group LLC", "city": "Centennial", "state": "Colorado", "country": "United States", "address": "6900 S Peoria St 80112-4137 Centennial USA"}}, {"type": "Feature", "geometry": {"type": "Point", "coordinates": [-97.7431, 30.2672]}, "properties": {"name": "700 Austin Ave", "company": "Zayo Group LLC", "city": "Waco", "state": "Texas", "country": "United States", "address": "700 Austin Ave 76701-2020 Waco USA"}}, {"type": "Feature", "geometry": {"type": "Point", "coordinates": [-80.8431, 35.2271]}, "properties": {"name": "701 East Trade Street", "company": "Lincoln Rackhouse", "city": "Charlotte", "state": "North Carolina", "country": "United States", "address": "701 E Trade St 28202 Charlotte USA"}}, {"type": "Feature", "geometry": {"type": "Point", "coordinates": [-87.6298, 41.8781]}, "properties": {"name": "701-703 S Lasalle St.", "company": "Vinakom", "city": "Chicago", "state": "Illinois", "country": "United States", "address": "701 S Lasalle St. 60605 Chicago United States"}}, {"type": "Feature", "geometry": {"type": "Point", "coordinates": [-118.2437, 34.0522]}, "properties": {"name": "707 Wilshire Blvd.", "company": "Zayo Group LLC", "city": "Los", "state": "California", "country": "United States", "address": "707 Wilshire Blvd 90017 Los Angeles USA"}}, {"type": "Feature", "geometry": {"type": "Point", "coordinates": [5.3698, 43.2965]}, "properties": {"name": "71 Av Andr\u00e9 Roussin", "company": "Jaguar Network SAS", "city": "Marseille", "state": "", "country": "France", "address": "71 Av Andr\u00e9 Roussin 13321 Marseille France"}}, {"type": "Feature", "geometry": {"type": "Point", "coordinates": [-96.797, 32.7767]}, "properties": {"name": "717 Leonard Street", "company": "Digital Realty Trust", "city": "Dallas", "state": "Texas", "country": "United States", "address": "Leonard St 717 75201 Dallas United States"}}, {"type": "Feature", "geometry": {"type": "Point", "coordinates": [-96.797, 32.7767]}, "properties": {"name": "717 North Harwood Street", "company": "Crown Castle", "city": "Dallas", "state": "Texas", "country": "United States", "address": "717 N Harwood St 75201 Dallas USA"}}, {"type": "Feature", "geometry": {"type": "Point", "coordinates": [-87.6298, 41.8781]}, "properties": {"name": "717 South Wells", "company": "Netrality", "city": "Chicago", "state": "Illinois", "country": "United States", "address": "717 S Wells St 60607 Chicago USA"}}, {"type": "Feature", "geometry": {"type": "Point", "coordinates": [-115.1398, 36.1699]}, "properties": {"name": "7185 Pollock Drive", "company": "Zayo Group LLC", "city": "Las", "state": "Nevada", "country": "United States", "address": "7185 Pollock Dr 89119-4415 Las Vegas USA"}}, {"type": "Feature", "geometry": {"type": "Point", "coordinates": [144.9631, -37.8136]}, "properties": {"name": "72 Radnor Drive", "company": "Digital Realty Trust", "city": "Melbourne", "state": "", "country": "Australia", "address": "Radnor Drive 72 3023 Melbourne Australia"}}, {"type": "Feature", "geometry": {"type": "Point", "coordinates": [-83.2989121, 42.8786004]}, "properties": {"name": "720 Second Street", "company": "Digital Realty Trust", "city": "Oakland", "state": "California", "country": "United States", "address": "720 Second Street 94607 Oakland United States"}}, {"type": "Feature", "geometry": {"type": "Point", "coordinates": [-97.7431, 30.2672]}, "properties": {"name": "7218 McNeil Drive", "company": "Zayo Group LLC", "city": "Austin", "state": "Texas", "country": "United States", "address": "7218 McNeil Dr 78729-7617 Austin USA"}}, {"type": "Feature", "geometry": {"type": "Point", "coordinates": [-87.6298, 41.8781]}, "properties": {"name": "725 S. Wells Street, Chicago ", "company": "Steadfast Networks", "city": "Chicago", "state": "Illinois", "country": "United States", "address": "725 S. Wells St., 8th Floor 60607 Chicago United States"}}, {"type": "Feature", "geometry": {"type": "Point", "coordinates": [-80.8431, 35.2271]}, "properties": {"name": "731 E Trade St", "company": "Digital Realty Trust", "city": "Charlotte", "state": "North Carolina", "country": "United States", "address": "731 E Trade St NC 28202 Charlotte United States"}}, {"type": "Feature", "geometry": {"type": "Point", "coordinates": [-117.1611, 32.7157]}, "properties": {"name": "7337 Trade Street", "company": "Mapletree Redwood Data Centre Trust (MRDCT)", "city": "San", "state": "California", "country": "United States", "address": "7337 Trade St 92121 San Diego USA"}}, {"type": "Feature", "geometry": {"type": "Point", "coordinates": [-122.8802419, 42.331861]}, "properties": {"name": "739 Welch Drive", "company": "Data Center West", "city": "Medford", "state": "Oregon", "country": "United States", "address": "739 Welch Drive 97501 Medford United States"}}, {"type": "Feature", "geometry": {"type": "Point", "coordinates": [-73.5601561, 45.4993377]}, "properties": {"name": "740 Notre Dame St West", "company": "Zayo Group LLC", "city": "Montr\u00e9al", "state": "", "country": "Canada", "address": "740 Rue Notre-Dame Ouest H3C 1J2 Montr\u00e9al Canada"}}, {"type": "Feature", "geometry": {"type": "Point", "coordinates": [-73.5673, 45.5017]}, "properties": {"name": "740 Notre-Dame West", "company": "740 Notre-Dame West", "city": "Montreal", "state": "", "country": "Canada", "address": "740 Notre-Dame West Montreal Canada"}}, {"type": "Feature", "geometry": {"type": "Point", "coordinates": [-97.7431, 30.2672]}, "properties": {"name": "7401 E. Ben White Boulevard", "company": "Digital Realty Trust", "city": "Austin", "state": "Texas", "country": "United States", "address": "E Ben White Blvd 7401 78744 Austin United States"}}, {"type": "Feature", "geometry": {"type": "Point", "coordinates": [-97.7431, 30.2672]}, "properties": {"name": "7500 Metro Center Dr", "company": "Digital Realty Trust", "city": "Austin", "state": "Texas", "country": "United States", "address": "7500 Metro Center Dr 78704 Austin United States"}}, {"type": "Feature", "geometry": {"type": "Point", "coordinates": [-96.797, 32.7767]}, "properties": {"name": "7505 John W. Carpenter Freeway", "company": "CoreSpace", "city": "Freeway", "state": "Texas", "country": "United States", "address": "7505 John W. Carpenter Freeway TX 75247 Dallas United States"}}, {"type": "Feature", "geometry": {"type": "Point", "coordinates": [-77.5382685, 38.7912098]}, "properties": {"name": "7505 Mason King Court", "company": "Digital Realty Trust", "city": "Manassas", "state": "District of Columbia", "country": "United States", "address": "7505 Mason King Court 20109 Manassas United States"}}, {"type": "Feature", "geometry": {"type": "Point", "coordinates": [-105.0810265, 39.8835405]}, "properties": {"name": "7579 W 103rd Ave", "company": "Zayo Group LLC", "city": "Westminster", "state": "Colorado", "country": "United States", "address": "7579 W 103rd Ave 80021-4071 Westminster USA"}}, {"type": "Feature", "geometry": {"type": "Point", "coordinates": [-84.388, 33.749]}, "properties": {"name": "760 Doug Davis Dr", "company": "Digital Realty Trust", "city": "Atlanta", "state": "Georgia", "country": "United States", "address": "Doug Davis Dr 760 30354 Atlanta United States"}}, {"type": "Feature", "geometry": {"type": "Point", "coordinates": [-89.8097005, 35.202494]}, "properties": {"name": "7620 Appling Center Dr", "company": "Zayo Group LLC", "city": "Memphis", "state": "Tennessee", "country": "United States", "address": "7620 Appling Center Drive 38133 Memphis United States"}}, {"type": "Feature", "geometry": {"type": "Point", "coordinates": [-97.7431, 30.2672]}, "properties": {"name": "7620 Metro Center Drive", "company": "Digital Realty Trust", "city": "Austin", "state": "Texas", "country": "United States", "address": "7620 Metro Center Drive 78704 Austin United States"}}, {"type": "Feature", "geometry": {"type": "Point", "coordinates": [5.3698, 43.2965]}, "properties": {"name": "78 Blvd du Sablier", "company": "Orange", "city": "Marseille", "state": "", "country": "France", "address": "78 Blvd du Sablier, Bonneveine Marseille France"}}, {"type": "Feature", "geometry": {"type": "Point", "coordinates": [-84.5179229, 39.1027886]}, "properties": {"name": "7th St.", "company": "CyrusOne", "city": "Cincinnati", "state": "Ohio", "country": "United States", "address": "West 7th Street 229 45202 Cincinnati United States"}}, {"type": "Feature", "geometry": {"type": "Point", "coordinates": [135.5976315, 34.8140572]}, "properties": {"name": "8-1, 5 Chome, Yamabuki, Saito", "company": "Digital Realty Trust", "city": "Ibaraki-shi", "state": "", "country": "Japan", "address": "8-1, 5 Chome 567-0051 Ibaraki-shi Japan"}}, {"type": "Feature", "geometry": {"type": "Point", "coordinates": [-73.1492921, 41.2472364]}, "properties": {"name": "80 Merritt Blvd", "company": "Digital Realty Trust", "city": "Trumbull", "state": "Connecticut", "country": "United States", "address": "80 Merritt Blvd 06611-5436 Trumbull USA"}}, {"type": "Feature", "geometry": {"type": "Point", "coordinates": [-87.925736, 42.07581]}, "properties": {"name": "800 E Business Center Dr.", "company": "Zayo Group LLC", "city": "Prospect", "state": "Illinois", "country": "United States", "address": "800 E Business Center Dr 60056-2178 Mt Prospect USA"}}, {"type": "Feature", "geometry": {"type": "Point", "coordinates": [-118.2437, 34.0522]}, "properties": {"name": "800 South Hope", "company": "Thomas Properties Group", "city": "Los", "state": "California", "country": "United States", "address": "800 South Hope Street 90017 Los Angeles United States"}}, {"type": "Feature", "geometry": {"type": "Point", "coordinates": [-81.542437, 35.922702]}, "properties": {"name": "801 Main Street NW", "company": "Dacentec", "city": "Lenoir", "state": "North Carolina", "country": "United States", "address": "801 Main Street NW NC 28645 Lenoir United States"}}, {"type": "Feature", "geometry": {"type": "Point", "coordinates": [-76.4673573, 39.3679394]}, "properties": {"name": "8029 Corporate Drive", "company": "Lincoln Rackhouse", "city": "Nottingham", "state": "Maryland", "country": "United States", "address": "8029 Corporate Dr 21236 Nottingham USA"}}, {"type": "Feature", "geometry": {"type": "Point", "coordinates": [-74.006, 40.7128]}, "properties": {"name": "811 10th Ave", "company": "Brookfield Infrastructure Partners LP", "city": "New", "state": "New York", "country": "United States", "address": "811 10th Avenue 10019 New York United States"}}, {"type": "Feature", "geometry": {"type": "Point", "coordinates": [-97.7431, 30.2672]}, "properties": {"name": "8201 E. Riverside Drive, Building 4-6", "company": "Digital Realty Trust", "city": "Austin", "state": "Texas", "country": "United States", "address": "E Riverside Dr 8201, Building 4-6 78744 Austin United States"}}, {"type": "Feature", "geometry": {"type": "Point", "coordinates": [-77.6000547, 38.778784]}, "properties": {"name": "8217 Linton Hall Road", "company": "Digital Realty Trust", "city": "Gainesville", "state": "District of Columbia", "country": "United States", "address": "8217 Linton Hall Rd 20155 Gainesville USA"}}, {"type": "Feature", "geometry": {"type": "Point", "coordinates": [-87.6298, 41.8781]}, "properties": {"name": "840 S Canal St", "company": "Zayo Group LLC", "city": "Chicago", "state": "Illinois", "country": "United States", "address": "840 Canal St 60607 Chicago USA"}}, {"type": "Feature", "geometry": {"type": "Point", "coordinates": [-87.6298, 41.8781]}, "properties": {"name": "840 South Canal Street", "company": "Red Sea Group", "city": "Street", "state": "Illinois", "country": "United States", "address": "840 South Canal Street IL 60607 Chicago United States"}}, {"type": "Feature", "geometry": {"type": "Point", "coordinates": [-96.797, 32.7767]}, "properties": {"name": "8435 N. Stemmons Freeway", "company": "Digital Realty Trust", "city": "Dallas", "state": "Texas", "country": "United States", "address": "N Stemmons Fwy 8435 75247 Dallas United States"}}, {"type": "Feature", "geometry": {"type": "Point", "coordinates": [-96.7299, 32.9483]}, "properties": {"name": "850 E. Collins Blvd", "company": "Digital Realty Trust", "city": "Blvd", "state": "Texas", "country": "United States", "address": "850 E. Collins Blvd TX 75081 Richardson United States"}}, {"type": "Feature", "geometry": {"type": "Point", "coordinates": [-111.8957585, 33.6445902]}, "properties": {"name": "8521 E Princess Dr", "company": "Cyxtera", "city": "Scottsdale", "state": "Arizona", "country": "United States", "address": "8521 E Princess Dr 85255 Scottsdale USA"}}, {"type": "Feature", "geometry": {"type": "Point", "coordinates": [-104.8307315, 39.5608018]}, "properties": {"name": "8534 Concord Center Dr", "company": "Digital Realty Trust", "city": "Englewood", "state": "Colorado", "country": "United States", "address": "8534 Concord Center Dr CO 80112 Englewood United States"}}, {"type": "Feature", "geometry": {"type": "Point", "coordinates": [-96.797, 32.7767]}, "properties": {"name": "8600 Harry Hines Blvd.", "company": "Zayo Group LLC", "city": "Dallas", "state": "Texas", "country": "United States", "address": "8600 Harry Hines Blvd 75235-3015 Dallas USA"}}, {"type": "Feature", "geometry": {"type": "Point", "coordinates": [138.6007, -34.9285]}, "properties": {"name": "90 King William Street", "company": "EscapeNet", "city": "Adelaide", "state": "", "country": "Australia", "address": "90 King William Street 5000 Adelaide Australia"}}, {"type": "Feature", "geometry": {"type": "Point", "coordinates": [-96.7299, 32.9483]}, "properties": {"name": "900 Quality Way", "company": "Digital Realty Trust", "city": "Way", "state": "Texas", "country": "United States", "address": "900 Quality Way TX 75081 Richardson United States"}}, {"type": "Feature", "geometry": {"type": "Point", "coordinates": [-90.1994, 38.627]}, "properties": {"name": "900 Walnut", "company": "Netrality", "city": "St.", "state": "Missouri", "country": "United States", "address": "900 Walnut St 63102 St. Louis USA"}}, {"type": "Feature", "geometry": {"type": "Point", "coordinates": [-96.7299, 32.9483]}, "properties": {"name": "904 Quality Way", "company": "Digital Realty Trust", "city": "Way", "state": "Texas", "country": "United States", "address": "904 Quality Way TX 75081 Richardson United States"}}, {"type": "Feature", "geometry": {"type": "Point", "coordinates": [-96.7299, 32.9483]}, "properties": {"name": "907 Security Row", "company": "Digital Realty Trust", "city": "Richardson", "state": "Texas", "country": "United States", "address": "Security Row 907 75081 Richardson United States"}}, {"type": "Feature", "geometry": {"type": "Point", "coordinates": [-96.7299, 32.9483]}, "properties": {"name": "908 Quality Way", "company": "Digital Realty Trust", "city": "Way", "state": "Texas", "country": "United States", "address": "908 Quality Way TX 75081 Richardson United States"}}, {"type": "Feature", "geometry": {"type": "Point", "coordinates": [-104.9903, 39.7392]}, "properties": {"name": "910Telecom", "company": "910Telecom", "city": "St.", "state": "Colorado", "country": "United States", "address": "910 15th St. CO 80202 Denver United States"}}, {"type": "Feature", "geometry": {"type": "Point", "coordinates": [5.3698, 43.2965]}, "properties": {"name": "93 rue Felix Pyat", "company": "Orange", "city": "Marseille", "state": "", "country": "France", "address": "93 rue Felix Pyat Marseille France"}}, {"type": "Feature", "geometry": {"type": "Point", "coordinates": [-82.4572, 27.9506]}, "properties": {"name": "9310 Florida Palm Dr", "company": "Cyxtera", "city": "Tampa", "state": "Florida", "country": "United States", "address": "9310 Florida Palm Dr 33619 Tampa USA"}}, {"type": "Feature", "geometry": {"type": "Point", "coordinates": [-96.7299, 32.9483]}, "properties": {"name": "950 E. Collins Blvd", "company": "Digital Realty Trust", "city": "Blvd", "state": "Texas", "country": "United States", "address": "950 E. Collins Blvd TX 75081 Richardson United States"}}, {"type": "Feature", "geometry": {"type": "Point", "coordinates": [-117.1611, 32.7157]}, "properties": {"name": "9606 Aero Drive", "company": "redIT", "city": "Drive", "state": "California", "country": "United States", "address": "9606 Aero Drive CA 92123 San Diego United States"}}, {"type": "Feature", "geometry": {"type": "Point", "coordinates": [-117.1611, 32.7157]}, "properties": {"name": "9606 Aero Drive", "company": "Zayo Group LLC", "city": "San", "state": "California", "country": "United States", "address": "9606 Aero Dr 92123 San Diego USA"}}, {"type": "Feature", "geometry": {"type": "Point", "coordinates": [144.779297, -37.7819699]}, "properties": {"name": "98 Radnor Drive", "company": "Digital Realty Trust", "city": "Deer", "state": "", "country": "Australia", "address": "Radnor Drive 98 3023 Deer Park Australia"}}, {"type": "Feature", "geometry": {"type": "Point", "coordinates": [-97.7431, 30.2672]}, "properties": {"name": "Austin (2100 S. IH-35)", "company": "XO Communications", "city": "Austin", "state": "Texas", "country": "United States", "address": "2100 So. I H 35 78704 Austin United States"}}, {"type": "Feature", "geometry": {"type": "Point", "coordinates": [-76.6156302, 39.28716]}, "properties": {"name": "Baltimore (S. Charles)", "company": "XO Communications", "city": "Baltimore", "state": "Maryland", "country": "United States", "address": "100 S. Charles St. 21201 Baltimore United States"}}, {"type": "Feature", "geometry": {"type": "Point", "coordinates": [-71.0589, 42.3601]}, "properties": {"name": "Boston", "company": "XO Communications", "city": "Boston", "state": "Massachusetts", "country": "United States", "address": "451 D Street, 3rd floor 02210 Boston United States"}}, {"type": "Feature", "geometry": {"type": "Point", "coordinates": [-87.6298, 41.8781]},