{
  "type": "FeatureCollection",
  "name": "european_capitals",
  "crs": {
    "type": "name",
    "properties": {
      "name": "EPSG:4326"
    }
  },
  "features": [
    {
      "type": "Feature",
      "properties": {
        "id": "europe:capital:amsterdam",
        "name": "Amsterdam",
        "country": "Netherlands",
        "kind": "capital",
        "role": "capital",
        "narrative_role": "Nodo urbano del Randstad",
        "status": "active",
        "time": "present",
        "source": "manual_wgs84"
      },
      "geometry": {
        "type": "Point",
        "coordinates": [
          4.9041,
          52.3676
        ]
      }
    },
    {
      "type": "Feature",
      "properties": {
        "id": "europe:capital:athens",
        "name": "Athens",
        "country": "Greece",
        "kind": "capital",
        "role": "capital",
        "narrative_role": "Porta sud-orientale europea",
        "status": "active",
        "time": "present",
        "source": "manual_wgs84"
      },
      "geometry": {
        "type": "Point",
        "coordinates": [
          23.7275,
          37.9838
        ]
      }
    },
    {
      "type": "Feature",
      "properties": {
        "id": "europe:capital:belgrade",
        "name": "Belgrade",
        "country": "Serbia",
        "kind": "capital",
        "role": "capital",
        "narrative_role": "Nodo balcanico",
        "status": "active",
        "time": "present",
        "source": "manual_wgs84"
      },
      "geometry": {
        "type": "Point",
        "coordinates": [
          20.4489,
          44.7866
        ]
      }
    },
    {
      "type": "Feature",
      "properties": {
        "id": "europe:capital:berlin",
        "name": "Berlin",
        "country": "Germany",
        "kind": "capital",
        "role": "capital",
        "narrative_role": "Centro politico tedesco",
        "status": "active",
        "time": "present",
        "source": "manual_wgs84"
      },
      "geometry": {
        "type": "Point",
        "coordinates": [
          13.405,
          52.52
        ]
      }
    },
    {
      "type": "Feature",
      "properties": {
        "id": "europe:capital:bern",
        "name": "Bern",
        "country": "Switzerland",
        "kind": "capital",
        "role": "capital",
        "narrative_role": "Centro federale svizzero",
        "status": "active",
        "time": "present",
        "source": "manual_wgs84"
      },
      "geometry": {
        "type": "Point",
        "coordinates": [
          7.4474,
          46.948
        ]
      }
    },
    {
      "type": "Feature",
      "properties": {
        "id": "europe:capital:bratislava",
        "name": "Bratislava",
        "country": "Slovakia",
        "kind": "capital",
        "role": "capital",
        "narrative_role": "Nodo danubiano",
        "status": "active",
        "time": "present",
        "source": "manual_wgs84"
      },
      "geometry": {
        "type": "Point",
        "coordinates": [
          17.1077,
          48.1486
        ]
      }
    },
    {
      "type": "Feature",
      "properties": {
        "id": "europe:capital:brussels",
        "name": "Brussels",
        "country": "Belgium",
        "kind": "capital",
        "role": "capital_eu",
        "narrative_role": "Centro istituzionale UE",
        "status": "active",
        "time": "present",
        "source": "manual_wgs84"
      },
      "geometry": {
        "type": "Point",
        "coordinates": [
          4.3517,
          50.8503
        ]
      }
    },
    {
      "type": "Feature",
      "properties": {
        "id": "europe:capital:bucharest",
        "name": "Bucharest",
        "country": "Romania",
        "kind": "capital",
        "role": "capital",
        "narrative_role": "Nodo del Danubio orientale",
        "status": "active",
        "time": "present",
        "source": "manual_wgs84"
      },
      "geometry": {
        "type": "Point",
        "coordinates": [
          26.1025,
          44.4268
        ]
      }
    },
    {
      "type": "Feature",
      "properties": {
        "id": "europe:capital:budapest",
        "name": "Budapest",
        "country": "Hungary",
        "kind": "capital",
        "role": "capital",
        "narrative_role": "Nodo centro-europeo",
        "status": "active",
        "time": "present",
        "source": "manual_wgs84"
      },
      "geometry": {
        "type": "Point",
        "coordinates": [
          19.0402,
          47.4979
        ]
      }
    },
    {
      "type": "Feature",
      "properties": {
        "id": "europe:capital:chisinau",
        "name": "Chisinau",
        "country": "Moldova",
        "kind": "capital",
        "role": "capital",
        "narrative_role": "Nodo di frontiera orientale",
        "status": "active",
        "time": "present",
        "source": "manual_wgs84"
      },
      "geometry": {
        "type": "Point",
        "coordinates": [
          28.8353,
          47.0105
        ]
      }
    },
    {
      "type": "Feature",
      "properties": {
        "id": "europe:capital:copenhagen",
        "name": "Copenhagen",
        "country": "Denmark",
        "kind": "capital",
        "role": "capital",
        "narrative_role": "Nodo nordico-marittimo",
        "status": "active",
        "time": "present",
        "source": "manual_wgs84"
      },
      "geometry": {
        "type": "Point",
        "coordinates": [
          12.5683,
          55.6761
        ]
      }
    },
    {
      "type": "Feature",
      "properties": {
        "id": "europe:capital:dublin",
        "name": "Dublin",
        "country": "Ireland",
        "kind": "capital",
        "role": "capital",
        "narrative_role": "Nodo atlantico digitale",
        "status": "active",
        "time": "present",
        "source": "manual_wgs84"
      },
      "geometry": {
        "type": "Point",
        "coordinates": [
          -6.2603,
          53.3498
        ]
      }
    },
    {
      "type": "Feature",
      "properties": {
        "id": "europe:capital:helsinki",
        "name": "Helsinki",
        "country": "Finland",
        "kind": "capital",
        "role": "capital",
        "narrative_role": "Nodo nord-orientale",
        "status": "active",
        "time": "present",
        "source": "manual_wgs84"
      },
      "geometry": {
        "type": "Point",
        "coordinates": [
          24.9384,
          60.1699
        ]
      }
    },
    {
      "type": "Feature",
      "properties": {
        "id": "europe:capital:kyiv",
        "name": "Kyiv",
        "country": "Ukraine",
        "kind": "capital",
        "role": "capital",
        "narrative_role": "Centro strategico orientale",
        "status": "active",
        "time": "present",
        "source": "manual_wgs84"
      },
      "geometry": {
        "type": "Point",
        "coordinates": [
          30.5234,
          50.4501
        ]
      }
    },
    {
      "type": "Feature",
      "properties": {
        "id": "europe:capital:lisbon",
        "name": "Lisbon",
        "country": "Portugal",
        "kind": "capital",
        "role": "capital",
        "narrative_role": "Nodo atlantico sud-occidentale",
        "status": "active",
        "time": "present",
        "source": "manual_wgs84"
      },
      "geometry": {
        "type": "Point",
        "coordinates": [
          -9.1393,
          38.7223
        ]
      }
    },
    {
      "type": "Feature",
      "properties": {
        "id": "europe:capital:ljubljana",
        "name": "Ljubljana",
        "country": "Slovenia",
        "kind": "capital",
        "role": "capital",
        "narrative_role": "Nodo alpino-adriatico",
        "status": "active",
        "time": "present",
        "source": "manual_wgs84"
      },
      "geometry": {
        "type": "Point",
        "coordinates": [
          14.5058,
          46.0569
        ]
      }
    },
    {
      "type": "Feature",
      "properties": {
        "id": "europe:capital:london",
        "name": "London",
        "country": "United Kingdom",
        "kind": "capital",
        "role": "capital",
        "narrative_role": "Nodo finanziario e atlantico",
        "status": "active",
        "time": "present",
        "source": "manual_wgs84"
      },
      "geometry": {
        "type": "Point",
        "coordinates": [
          -0.1276,
          51.5072
        ]
      }
    },
    {
      "type": "Feature",
      "properties": {
        "id": "europe:capital:luxembourg",
        "name": "Luxembourg",
        "country": "Luxembourg",
        "kind": "capital",
        "role": "capital_eu",
        "narrative_role": "Presenza istituzionale UE",
        "status": "active",
        "time": "present",
        "source": "manual_wgs84"
      },
      "geometry": {
        "type": "Point",
        "coordinates": [
          6.1296,
          49.6116
        ]
      }
    },
    {
      "type": "Feature",
      "properties": {
        "id": "europe:capital:madrid",
        "name": "Madrid",
        "country": "Spain",
        "kind": "capital",
        "role": "capital",
        "narrative_role": "Centro iberico",
        "status": "active",
        "time": "present",
        "source": "manual_wgs84"
      },
      "geometry": {
        "type": "Point",
        "coordinates": [
          -3.7038,
          40.4168
        ]
      }
    },
    {
      "type": "Feature",
      "properties": {
        "id": "europe:capital:minsk",
        "name": "Minsk",
        "country": "Belarus",
        "kind": "capital",
        "role": "capital",
        "narrative_role": "Nodo orientale extra-UE",
        "status": "active",
        "time": "present",
        "source": "manual_wgs84"
      },
      "geometry": {
        "type": "Point",
        "coordinates": [
          27.5615,
          53.9045
        ]
      }
    },
    {
      "type": "Feature",
      "properties": {
        "id": "europe:capital:monaco",
        "name": "Monaco",
        "country": "Monaco",
        "kind": "capital",
        "role": "capital",
        "narrative_role": "Microstato mediterraneo",
        "status": "active",
        "time": "present",
        "source": "manual_wgs84"
      },
      "geometry": {
        "type": "Point",
        "coordinates": [
          7.4246,
          43.7384
        ]
      }
    },
    {
      "type": "Feature",
      "properties": {
        "id": "europe:capital:nicosia",
        "name": "Nicosia",
        "country": "Cyprus",
        "kind": "capital",
        "role": "capital",
        "narrative_role": "Nodo mediterraneo orientale",
        "status": "active",
        "time": "present",
        "source": "manual_wgs84"
      },
      "geometry": {
        "type": "Point",
        "coordinates": [
          33.3823,
          35.1856
        ]
      }
    },
    {
      "type": "Feature",
      "properties": {
        "id": "europe:capital:oslo",
        "name": "Oslo",
        "country": "Norway",
        "kind": "capital",
        "role": "capital",
        "narrative_role": "Nodo nordico energetico",
        "status": "active",
        "time": "present",
        "source": "manual_wgs84"
      },
      "geometry": {
        "type": "Point",
        "coordinates": [
          10.7522,
          59.9139
        ]
      }
    },
    {
      "type": "Feature",
      "properties": {
        "id": "europe:capital:paris",
        "name": "Paris",
        "country": "France",
        "kind": "capital",
        "role": "capital",
        "narrative_role": "Centro politico francese",
        "status": "active",
        "time": "present",
        "source": "manual_wgs84"
      },
      "geometry": {
        "type": "Point",
        "coordinates": [
          2.3522,
          48.8566
        ]
      }
    },
    {
      "type": "Feature",
      "properties": {
        "id": "europe:capital:podgorica",
        "name": "Podgorica",
        "country": "Montenegro",
        "kind": "capital",
        "role": "capital",
        "narrative_role": "Nodo balcanico-adriatico",
        "status": "active",
        "time": "present",
        "source": "manual_wgs84"
      },
      "geometry": {
        "type": "Point",
        "coordinates": [
          19.2594,
          42.4304
        ]
      }
    },
    {
      "type": "Feature",
      "properties": {
        "id": "europe:capital:prague",
        "name": "Prague",
        "country": "Czechia",
        "kind": "capital",
        "role": "capital",
        "narrative_role": "Nodo centro-europeo",
        "status": "active",
        "time": "present",
        "source": "manual_wgs84"
      },
      "geometry": {
        "type": "Point",
        "coordinates": [
          14.4378,
          50.0755
        ]
      }
    },
    {
      "type": "Feature",
      "properties": {
        "id": "europe:capital:pristina",
        "name": "Pristina",
        "country": "Kosovo",
        "kind": "capital",
        "role": "capital",
        "narrative_role": "Nodo balcanico",
        "status": "active",
        "time": "present",
        "source": "manual_wgs84"
      },
      "geometry": {
        "type": "Point",
        "coordinates": [
          21.1655,
          42.6629
        ]
      }
    },
    {
      "type": "Feature",
      "properties": {
        "id": "europe:capital:reykjavik",
        "name": "Reykjavik",
        "country": "Iceland",
        "kind": "capital",
        "role": "capital",
        "narrative_role": "Nodo nord-atlantico",
        "status": "active",
        "time": "present",
        "source": "manual_wgs84"
      },
      "geometry": {
        "type": "Point",
        "coordinates": [
          -21.8277,
          64.1265
        ]
      }
    },
    {
      "type": "Feature",
      "properties": {
        "id": "europe:capital:riga",
        "name": "Riga",
        "country": "Latvia",
        "kind": "capital",
        "role": "capital",
        "narrative_role": "Nodo baltico",
        "status": "active",
        "time": "present",
        "source": "manual_wgs84"
      },
      "geometry": {
        "type": "Point",
        "coordinates": [
          24.1052,
          56.9496
        ]
      }
    },
    {
      "type": "Feature",
      "properties": {
        "id": "europe:capital:rome",
        "name": "Rome",
        "country": "Italy",
        "kind": "capital",
        "role": "capital",
        "narrative_role": "Centro politico italiano",
        "status": "active",
        "time": "present",
        "source": "manual_wgs84"
      },
      "geometry": {
        "type": "Point",
        "coordinates": [
          12.4964,
          41.9028
        ]
      }
    },
    {
      "type": "Feature",
      "properties": {
        "id": "europe:capital:sarajevo",
        "name": "Sarajevo",
        "country": "Bosnia and Herzegovina",
        "kind": "capital",
        "role": "capital",
        "narrative_role": "Nodo balcanico",
        "status": "active",
        "time": "present",
        "source": "manual_wgs84"
      },
      "geometry": {
        "type": "Point",
        "coordinates": [
          18.4131,
          43.8563
        ]
      }
    },
    {
      "type": "Feature",
      "properties": {
        "id": "europe:capital:skopje",
        "name": "Skopje",
        "country": "North Macedonia",
        "kind": "capital",
        "role": "capital",
        "narrative_role": "Nodo balcanico",
        "status": "active",
        "time": "present",
        "source": "manual_wgs84"
      },
      "geometry": {
        "type": "Point",
        "coordinates": [
          21.4316,
          41.9973
        ]
      }
    },
    {
      "type": "Feature",
      "properties": {
        "id": "europe:capital:sofia",
        "name": "Sofia",
        "country": "Bulgaria",
        "kind": "capital",
        "role": "capital",
        "narrative_role": "Nodo balcanico-orientale",
        "status": "active",
        "time": "present",
        "source": "manual_wgs84"
      },
      "geometry": {
        "type": "Point",
        "coordinates": [
          23.3219,
          42.6977
        ]
      }
    },
    {
      "type": "Feature",
      "properties": {
        "id": "europe:capital:stockholm",
        "name": "Stockholm",
        "country": "Sweden",
        "kind": "capital",
        "role": "capital",
        "narrative_role": "Nodo nordico",
        "status": "active",
        "time": "present",
        "source": "manual_wgs84"
      },
      "geometry": {
        "type": "Point",
        "coordinates": [
          18.0686,
          59.3293
        ]
      }
    },
    {
      "type": "Feature",
      "properties": {
        "id": "europe:capital:tallinn",
        "name": "Tallinn",
        "country": "Estonia",
        "kind": "capital",
        "role": "capital",
        "narrative_role": "Nodo baltico digitale",
        "status": "active",
        "time": "present",
        "source": "manual_wgs84"
      },
      "geometry": {
        "type": "Point",
        "coordinates": [
          24.7536,
          59.437
        ]
      }
    },
    {
      "type": "Feature",
      "properties": {
        "id": "europe:capital:tirana",
        "name": "Tirana",
        "country": "Albania",
        "kind": "capital",
        "role": "capital",
        "narrative_role": "Nodo balcanico-adriatico",
        "status": "active",
        "time": "present",
        "source": "manual_wgs84"
      },
      "geometry": {
        "type": "Point",
        "coordinates": [
          19.8187,
          41.3275
        ]
      }
    },
    {
      "type": "Feature",
      "properties": {
        "id": "europe:capital:vaduz",
        "name": "Vaduz",
        "country": "Liechtenstein",
        "kind": "capital",
        "role": "capital",
        "narrative_role": "Microstato alpino",
        "status": "active",
        "time": "present",
        "source": "manual_wgs84"
      },
      "geometry": {
        "type": "Point",
        "coordinates": [
          9.5209,
          47.141
        ]
      }
    },
    {
      "type": "Feature",
      "properties": {
        "id": "europe:capital:valletta",
        "name": "Valletta",
        "country": "Malta",
        "kind": "capital",
        "role": "capital",
        "narrative_role": "Nodo mediterraneo",
        "status": "active",
        "time": "present",
        "source": "manual_wgs84"
      },
      "geometry": {
        "type": "Point",
        "coordinates": [
          14.5146,
          35.8997
        ]
      }
    },
    {
      "type": "Feature",
      "properties": {
        "id": "europe:capital:vienna",
        "name": "Vienna",
        "country": "Austria",
        "kind": "capital",
        "role": "capital",
        "narrative_role": "Nodo danubiano e diplomatico",
        "status": "active",
        "time": "present",
        "source": "manual_wgs84"
      },
      "geometry": {
        "type": "Point",
        "coordinates": [
          16.3738,
          48.2082
        ]
      }
    },
    {
      "type": "Feature",
      "properties": {
        "id": "europe:capital:vilnius",
        "name": "Vilnius",
        "country": "Lithuania",
        "kind": "capital",
        "role": "capital",
        "narrative_role": "Nodo baltico",
        "status": "active",
        "time": "present",
        "source": "manual_wgs84"
      },
      "geometry": {
        "type": "Point",
        "coordinates": [
          25.2797,
          54.6872
        ]
      }
    },
    {
      "type": "Feature",
      "properties": {
        "id": "europe:capital:warsaw",
        "name": "Warsaw",
        "country": "Poland",
        "kind": "capital",
        "role": "capital",
        "narrative_role": "Nodo logistico orientale",
        "status": "active",
        "time": "present",
        "source": "manual_wgs84"
      },
      "geometry": {
        "type": "Point",
        "coordinates": [
          21.0122,
          52.2297
        ]
      }
    },
    {
      "type": "Feature",
      "properties": {
        "id": "europe:capital:zagreb",
        "name": "Zagreb",
        "country": "Croatia",
        "kind": "capital",
        "role": "capital",
        "narrative_role": "Nodo adriatico-balcanico",
        "status": "active",
        "time": "present",
        "source": "manual_wgs84"
      },
      "geometry": {
        "type": "Point",
        "coordinates": [
          15.9819,
          45.815
        ]
      }
    }
  ]
}